{
"type": "FeatureCollection",
"crs": { "type": "name", "properties": { "name": "urn:ogc:def:crs:OGC:1.3:CRS84" } },
"features": [
{ "type": "Feature", "properties": { "osm_id": "4099038753", "name": "Army Camp Hospital", "amenity": "hospital", "man_made": null, "shop": null, "tourism": null, "opening_ho": null, "beds": null, "rooms": null, "addr_full": null, "addr_house": null, "addr_stree": null, "addr_city": null }, "geometry": { "type": "Point", "coordinates": [ 80.0164814, 6.8480176 ] } },
{ "type": "Feature", "properties": { "osm_id": "4333463323", "name": "Sethma Hospital Gampaha", "amenity": "hospital", "man_made": null, "shop": null, "tourism": null, "opening_ho": null, "beds": null, "rooms": null, "addr_full": null, "addr_house": null, "addr_stree": null, "addr_city": null }, "geometry": { "type": "Point", "coordinates": [ 79.9975095, 7.0934375 ] } },
{ "type": "Feature", "properties": { "osm_id": "1976145973", "name": "Kobeigane Base Hospital", "amenity": "hospital", "man_made": null, "shop": null, "tourism": null, "opening_ho": null, "beds": null, "rooms": null, "addr_full": null, "addr_house": null, "addr_stree": null, "addr_city": null }, "geometry": { "type": "Point", "coordinates": [ 80.125702, 7.6555111 ] } },
{ "type": "Feature", "properties": { "osm_id": "4443856594", "name": "Divisional Hospital Bogawanthalawa", "amenity": "hospital", "man_made": null, "shop": null, "tourism": null, "opening_ho": null, "beds": null, "rooms": null, "addr_full": null, "addr_house": null, "addr_stree": "Norwood-Bogawantalawa Road", "addr_city": "Bogawantalawa" }, "geometry": { "type": "Point", "coordinates": [ 80.6784721, 6.794878 ] } },
{ "type": "Feature", "properties": { "osm_id": "5173638392", "name": "Kandy Nursing Home", "amenity": "hospital", "man_made": null, "shop": null, "tourism": null, "opening_ho": null, "beds": null, "rooms": null, "addr_full": null, "addr_house": null, "addr_stree": null, "addr_city": null }, "geometry": { "type": "Point", "coordinates": [ 80.6450197, 7.2910283 ] } },
{ "type": "Feature", "properties": { "osm_id": "1977820865", "name": "Hospital Narammala", "amenity": "hospital", "man_made": null, "shop": null, "tourism": null, "opening_ho": null, "beds": null, "rooms": null, "addr_full": null, "addr_house": null, "addr_stree": null, "addr_city": null }, "geometry": { "type": "Point", "coordinates": [ 80.2064789, 7.4312722 ] } },
{ "type": "Feature", "properties": { "osm_id": "6236736780", "name": "Wellatha Rural Hospital", "amenity": "hospital", "man_made": null, "shop": null, "tourism": null, "opening_ho": null, "beds": null, "rooms": null, "addr_full": null, "addr_house": null, "addr_stree": null, "addr_city": null }, "geometry": { "type": "Point", "coordinates": [ 80.0729245, 6.5701994 ] } },
{ "type": "Feature", "properties": { "osm_id": "4443922076", "name": "Agarapatana Divisional Hospital", "amenity": "hospital", "man_made": null, "shop": null, "tourism": null, "opening_ho": null, "beds": null, "rooms": null, "addr_full": null, "addr_house": null, "addr_stree": null, "addr_city": null }, "geometry": { "type": "Point", "coordinates": [ 80.6852925, 6.8701143 ] } },
{ "type": "Feature", "properties": { "osm_id": "2552015799", "name": "Odent Dental Surgery", "amenity": "hospital", "man_made": null, "shop": null, "tourism": null, "opening_ho": null, "beds": null, "rooms": null, "addr_full": null, "addr_house": null, "addr_stree": "High Level Road", "addr_city": "Maharagama" }, "geometry": { "type": "Point", "coordinates": [ 79.9308043, 6.8449276 ] } },
{ "type": "Feature", "properties": { "osm_id": "3090091975", "name": "Base Hospital", "amenity": "hospital", "man_made": null, "shop": null, "tourism": null, "opening_ho": null, "beds": null, "rooms": null, "addr_full": null, "addr_house": null, "addr_stree": null, "addr_city": "Eheliyagoda" }, "geometry": { "type": "Point", "coordinates": [ 80.2643708, 6.8482459 ] } },
{ "type": "Feature", "properties": { "osm_id": "3331326390", "name": "Chenaikudiruppu Base Hospital", "amenity": "hospital", "man_made": null, "shop": null, "tourism": null, "opening_ho": null, "beds": null, "rooms": null, "addr_full": null, "addr_house": null, "addr_stree": null, "addr_city": "Kalmunai" }, "geometry": { "type": "Point", "coordinates": [ 81.80741350000001, 7.4174236 ] } },
{ "type": "Feature", "properties": { "osm_id": "4395603151", "name": "Divisional Hospital - Atchuvely", "amenity": "hospital", "man_made": null, "shop": null, "tourism": null, "opening_ho": null, "beds": null, "rooms": null, "addr_full": null, "addr_house": null, "addr_stree": null, "addr_city": null }, "geometry": { "type": "Point", "coordinates": [ 80.1154777, 9.7727802 ] } },
{ "type": "Feature", "properties": { "osm_id": "1977820889", "name": "Ayurweda Hospital Narammala", "amenity": "hospital", "man_made": null, "shop": null, "tourism": null, "opening_ho": null, "beds": null, "rooms": null, "addr_full": null, "addr_house": null, "addr_stree": null, "addr_city": null }, "geometry": { "type": "Point", "coordinates": [ 80.2125944, 7.4325701 ] } },
{ "type": "Feature", "properties": { "osm_id": "3331351770", "name": "Divisional Hospital", "amenity": "hospital", "man_made": null, "shop": null, "tourism": null, "opening_ho": null, "beds": null, "rooms": null, "addr_full": null, "addr_house": null, "addr_stree": null, "addr_city": "Maruthamunai" }, "geometry": { "type": "Point", "coordinates": [ 81.8111066, 7.4327928 ] } },
{ "type": "Feature", "properties": { "osm_id": "2334181719", "name": "Teldeniya District Base Hospital", "amenity": "hospital", "man_made": null, "shop": null, "tourism": null, "opening_ho": null, "beds": null, "rooms": null, "addr_full": null, "addr_house": null, "addr_stree": null, "addr_city": null }, "geometry": { "type": "Point", "coordinates": [ 80.7644417, 7.3077388 ] } },
{ "type": "Feature", "properties": { "osm_id": "3778409802", "name": "Aurvedic Dispensary", "amenity": "hospital", "man_made": null, "shop": null, "tourism": null, "opening_ho": null, "beds": null, "rooms": null, "addr_full": null, "addr_house": null, "addr_stree": null, "addr_city": null }, "geometry": { "type": "Point", "coordinates": [ 81.0529372, 7.0661314 ] } },
{ "type": "Feature", "properties": { "osm_id": "6631008087", "name": "Rawana Arana", "amenity": "hospital", "man_made": null, "shop": null, "tourism": null, "opening_ho": null, "beds": null, "rooms": null, "addr_full": null, "addr_house": "139\/7A", "addr_stree": "Pagoda Road", "addr_city": "Sri Jayawadhanapura Kotte" }, "geometry": { "type": "Point", "coordinates": [ 79.8990978, 6.8854297 ] } },
{ "type": "Feature", "properties": { "osm_id": "6307688985", "name": null, "amenity": "hospital", "man_made": null, "shop": null, "tourism": null, "opening_ho": null, "beds": null, "rooms": null, "addr_full": null, "addr_house": null, "addr_stree": null, "addr_city": null }, "geometry": { "type": "Point", "coordinates": [ 79.8532837, 6.9020809 ] } },
{ "type": "Feature", "properties": { "osm_id": "3098340244", "name": "bsr", "amenity": "hospital", "man_made": null, "shop": null, "tourism": null, "opening_ho": null, "beds": null, "rooms": null, "addr_full": null, "addr_house": null, "addr_stree": null, "addr_city": null }, "geometry": { "type": "Point", "coordinates": [ 80.5250197, 5.9541051 ] } },
{ "type": "Feature", "properties": { "osm_id": "6579895565", "name": "Divisional Hospital Ganthuna", "amenity": "hospital", "man_made": null, "shop": null, "tourism": null, "opening_ho": null, "beds": null, "rooms": null, "addr_full": null, "addr_house": null, "addr_stree": "Pallegama,", "addr_city": "Ganthuna" }, "geometry": { "type": "Point", "coordinates": [ 80.400534900000011, 7.133569 ] } },
{ "type": "Feature", "properties": { "osm_id": "2335114652", "name": "Digana", "amenity": "hospital", "man_made": null, "shop": null, "tourism": null, "opening_ho": null, "beds": null, "rooms": null, "addr_full": null, "addr_house": null, "addr_stree": null, "addr_city": null }, "geometry": { "type": "Point", "coordinates": [ 80.734843500000011, 7.2942769 ] } },
{ "type": "Feature", "properties": { "osm_id": "3333281914", "name": "Base Hospital", "amenity": "hospital", "man_made": null, "shop": null, "tourism": null, "opening_ho": null, "beds": null, "rooms": null, "addr_full": null, "addr_house": null, "addr_stree": null, "addr_city": "Periyakallar" }, "geometry": { "type": "Point", "coordinates": [ 81.8116993, 7.4667411 ] } },
{ "type": "Feature", "properties": { "osm_id": "191815748", "name": "Ninewells Hospital", "amenity": "hospital", "man_made": null, "shop": null, "tourism": null, "opening_ho": null, "beds": null, "rooms": null, "addr_full": null, "addr_house": null, "addr_stree": null, "addr_city": "colombo 05" }, "geometry": { "type": "Point", "coordinates": [ 79.8828078, 6.89497 ] } },
{ "type": "Feature", "properties": { "osm_id": "2900188513", "name": "Base Hospital", "amenity": "hospital", "man_made": null, "shop": null, "tourism": null, "opening_ho": null, "beds": null, "rooms": null, "addr_full": null, "addr_house": null, "addr_stree": null, "addr_city": "Balapitiya" }, "geometry": { "type": "Point", "coordinates": [ 80.0376913, 6.2600325 ] } },
{ "type": "Feature", "properties": { "osm_id": "191815840", "name": "Asiri Surgical Hospital", "amenity": "hospital", "man_made": null, "shop": null, "tourism": null, "opening_ho": null, "beds": null, "rooms": null, "addr_full": null, "addr_house": null, "addr_stree": null, "addr_city": null }, "geometry": { "type": "Point", "coordinates": [ 79.8797172, 6.8945486 ] } },
{ "type": "Feature", "properties": { "osm_id": "2558644076", "name": "Thalwaththa Hospital", "amenity": "hospital", "man_made": null, "shop": null, "tourism": null, "opening_ho": null, "beds": null, "rooms": null, "addr_full": null, "addr_house": null, "addr_stree": null, "addr_city": null }, "geometry": { "type": "Point", "coordinates": [ 80.1857597, 7.2918223 ] } },
{ "type": "Feature", "properties": { "osm_id": "5435909721", "name": "Habarana Divisional Hospital", "amenity": "hospital", "man_made": null, "shop": null, "tourism": null, "opening_ho": null, "beds": null, "rooms": null, "addr_full": null, "addr_house": null, "addr_stree": null, "addr_city": null }, "geometry": { "type": "Point", "coordinates": [ 80.7561797, 8.0384853 ] } },
{ "type": "Feature", "properties": { "osm_id": "2335170467", "name": "Police Hospital", "amenity": "hospital", "man_made": null, "shop": null, "tourism": null, "opening_ho": null, "beds": null, "rooms": null, "addr_full": null, "addr_house": null, "addr_stree": null, "addr_city": null }, "geometry": { "type": "Point", "coordinates": [ 80.6821381, 7.2798275 ] } },
{ "type": "Feature", "properties": { "osm_id": "2900426653", "name": "Roseth Hospital", "amenity": "hospital", "man_made": null, "shop": null, "tourism": null, "opening_ho": null, "beds": null, "rooms": null, "addr_full": null, "addr_house": null, "addr_stree": "Ambalangoda -Batapola Road", "addr_city": "Ambalangoda" }, "geometry": { "type": "Point", "coordinates": [ 80.0544144, 6.2390668 ] } },
{ "type": "Feature", "properties": { "osm_id": "2559270088", "name": "Public Dispensary", "amenity": "hospital", "man_made": null, "shop": null, "tourism": null, "opening_ho": null, "beds": null, "rooms": null, "addr_full": null, "addr_house": null, "addr_stree": null, "addr_city": null }, "geometry": { "type": "Point", "coordinates": [ 80.1779798, 7.3372132 ] } },
{ "type": "Feature", "properties": { "osm_id": "5176117555", "name": "Madampagama Rural Hospital", "amenity": "hospital", "man_made": null, "shop": null, "tourism": null, "opening_ho": null, "beds": null, "rooms": null, "addr_full": null, "addr_house": null, "addr_stree": "Aluthwala Road", "addr_city": "Ambalangoda" }, "geometry": { "type": "Point", "coordinates": [ 80.063820400000012, 6.2131626 ] } },
{ "type": "Feature", "properties": { "osm_id": "1978801477", "name": "Nugegoda Nursing Home", "amenity": "hospital", "man_made": null, "shop": null, "tourism": null, "opening_ho": null, "beds": null, "rooms": null, "addr_full": null, "addr_house": null, "addr_stree": null, "addr_city": "Nugegoda" }, "geometry": { "type": "Point", "coordinates": [ 79.8913231, 6.8685486 ] } },
{ "type": "Feature", "properties": { "osm_id": "2338860270", "name": "Aranayake Hospital", "amenity": "hospital", "man_made": null, "shop": null, "tourism": null, "opening_ho": null, "beds": null, "rooms": null, "addr_full": null, "addr_house": null, "addr_stree": null, "addr_city": null }, "geometry": { "type": "Point", "coordinates": [ 80.45871910000001, 7.1773575 ] } },
{ "type": "Feature", "properties": { "osm_id": "4039495741", "name": "Makkanigama Hospital", "amenity": "hospital", "man_made": null, "shop": null, "tourism": null, "opening_ho": null, "beds": null, "rooms": null, "addr_full": null, "addr_house": null, "addr_stree": "Katugastota-Bambarella Road", "addr_city": "Kundasale" }, "geometry": { "type": "Point", "coordinates": [ 80.705658, 7.3463532 ] } },
{ "type": "Feature", "properties": { "osm_id": "2901379801", "name": "Aloka Hospital", "amenity": "hospital", "man_made": null, "shop": null, "tourism": null, "opening_ho": null, "beds": null, "rooms": null, "addr_full": null, "addr_house": null, "addr_stree": "Inner Circular Road", "addr_city": "Rathnapura" }, "geometry": { "type": "Point", "coordinates": [ 80.4034419, 6.6821753 ] } },
{ "type": "Feature", "properties": { "osm_id": "3958960457", "name": "Divisional Hospital Pallai", "amenity": "hospital", "man_made": null, "shop": null, "tourism": null, "opening_ho": null, "beds": null, "rooms": null, "addr_full": null, "addr_house": null, "addr_stree": null, "addr_city": null }, "geometry": { "type": "Point", "coordinates": [ 80.3254895, 9.6146574 ] } },
{ "type": "Feature", "properties": { "osm_id": "2901418998", "name": "Sinha Hospital", "amenity": "hospital", "man_made": null, "shop": null, "tourism": null, "opening_ho": null, "beds": null, "rooms": null, "addr_full": null, "addr_house": null, "addr_stree": "Colombo - Ratnapura Road", "addr_city": "Rathnapura" }, "geometry": { "type": "Point", "coordinates": [ 80.3946581, 6.6909652 ] } },
{ "type": "Feature", "properties": { "osm_id": "1243386881", "name": "General Hospital", "amenity": "hospital", "man_made": null, "shop": null, "tourism": null, "opening_ho": null, "beds": null, "rooms": null, "addr_full": null, "addr_house": null, "addr_stree": null, "addr_city": "Trincomalee" }, "geometry": { "type": "Point", "coordinates": [ 81.239474, 8.5645309 ] } },
{ "type": "Feature", "properties": { "osm_id": "673927618", "name": "Dehiwala Medical Centre", "amenity": "hospital", "man_made": null, "shop": null, "tourism": null, "opening_ho": null, "beds": null, "rooms": null, "addr_full": null, "addr_house": null, "addr_stree": null, "addr_city": null }, "geometry": { "type": "Point", "coordinates": [ 79.8664157, 6.8607229 ] } },
{ "type": "Feature", "properties": { "osm_id": "3865839230", "name": "Sugantha Nursing Home", "amenity": "hospital", "man_made": null, "shop": null, "tourism": null, "opening_ho": null, "beds": null, "rooms": null, "addr_full": null, "addr_house": null, "addr_stree": null, "addr_city": null }, "geometry": { "type": "Point", "coordinates": [ 80.0215101, 9.6712073 ] } },
{ "type": "Feature", "properties": { "osm_id": "1600076876", "name": "Dispencery", "amenity": "hospital", "man_made": null, "shop": null, "tourism": null, "opening_ho": null, "beds": null, "rooms": null, "addr_full": null, "addr_house": null, "addr_stree": null, "addr_city": null }, "geometry": { "type": "Point", "coordinates": [ 79.94195040000001, 6.8787193 ] } },
{ "type": "Feature", "properties": { "osm_id": "253022237", "name": "Joseph Fraser Memorial Hospital", "amenity": "hospital", "man_made": null, "shop": null, "tourism": null, "opening_ho": null, "beds": null, "rooms": null, "addr_full": null, "addr_house": null, "addr_stree": null, "addr_city": null }, "geometry": { "type": "Point", "coordinates": [ 79.8652189, 6.8952045 ] } },
{ "type": "Feature", "properties": { "osm_id": "1981147412", "name": "Kekirawa District Hospital", "amenity": "hospital", "man_made": null, "shop": null, "tourism": null, "opening_ho": null, "beds": null, "rooms": null, "addr_full": null, "addr_house": null, "addr_stree": null, "addr_city": null }, "geometry": { "type": "Point", "coordinates": [ 80.5960427, 8.044023 ] } },
{ "type": "Feature", "properties": { "osm_id": "253727547", "name": "Oasis General Hospital", "amenity": "hospital", "man_made": null, "shop": null, "tourism": null, "opening_ho": null, "beds": null, "rooms": null, "addr_full": null, "addr_house": null, "addr_stree": null, "addr_city": null }, "geometry": { "type": "Point", "coordinates": [ 79.8794569, 6.8951426 ] } },
{ "type": "Feature", "properties": { "osm_id": "1981159943", "name": "Mihintale district Hospital", "amenity": "hospital", "man_made": null, "shop": null, "tourism": null, "opening_ho": null, "beds": null, "rooms": null, "addr_full": null, "addr_house": null, "addr_stree": null, "addr_city": null }, "geometry": { "type": "Point", "coordinates": [ 80.5098112, 8.3547478 ] } },
{ "type": "Feature", "properties": { "osm_id": "254367261", "name": "Wethara District Hospital", "amenity": "hospital", "man_made": null, "shop": null, "tourism": null, "opening_ho": null, "beds": null, "rooms": null, "addr_full": null, "addr_house": null, "addr_stree": "Colombo - Horana Road", "addr_city": "Wethara" }, "geometry": { "type": "Point", "coordinates": [ 79.972974900000011, 6.7852045 ] } },
{ "type": "Feature", "properties": { "osm_id": "674889506", "name": "Royal Hospital", "amenity": "hospital", "man_made": null, "shop": null, "tourism": null, "opening_ho": null, "beds": null, "rooms": null, "addr_full": null, "addr_house": null, "addr_stree": null, "addr_city": null }, "geometry": { "type": "Point", "coordinates": [ 79.8638438, 6.8760289 ] } },
{ "type": "Feature", "properties": { "osm_id": "2339237715", "name": "Panadura Nursing Home", "amenity": "hospital", "man_made": null, "shop": null, "tourism": null, "opening_ho": null, "beds": null, "rooms": null, "addr_full": null, "addr_house": null, "addr_stree": null, "addr_city": null }, "geometry": { "type": "Point", "coordinates": [ 79.905888, 6.7057665 ] } },
{ "type": "Feature", "properties": { "osm_id": "3867347215", "name": "Senapura (Kagama) Rural Hospital", "amenity": "hospital", "man_made": null, "shop": null, "tourism": null, "opening_ho": null, "beds": null, "rooms": null, "addr_full": null, "addr_house": null, "addr_stree": null, "addr_city": null }, "geometry": { "type": "Point", "coordinates": [ 80.4706225, 8.0919436 ] } },
{ "type": "Feature", "properties": { "osm_id": "4109862321", "name": "Ever Green Hospital Pvt Ltd", "amenity": "hospital", "man_made": null, "shop": null, "tourism": null, "opening_ho": null, "beds": null, "rooms": null, "addr_full": null, "addr_house": null, "addr_stree": null, "addr_city": null }, "geometry": { "type": "Point", "coordinates": [ 80.1681377, 9.6613214 ] } },
{ "type": "Feature", "properties": { "osm_id": "4682730891", "name": null, "amenity": "hospital", "man_made": null, "shop": null, "tourism": null, "opening_ho": null, "beds": null, "rooms": null, "addr_full": null, "addr_house": null, "addr_stree": null, "addr_city": null }, "geometry": { "type": "Point", "coordinates": [ 80.0994826, 6.1407286 ] } },
{ "type": "Feature", "properties": { "osm_id": "1617955806", "name": "Dissanayake Private Hospital Negombo", "amenity": "hospital", "man_made": null, "shop": null, "tourism": null, "opening_ho": null, "beds": null, "rooms": null, "addr_full": null, "addr_house": null, "addr_stree": null, "addr_city": null }, "geometry": { "type": "Point", "coordinates": [ 79.8536244, 7.2012053 ] } },
{ "type": "Feature", "properties": { "osm_id": "4448911930", "name": "Divisional Hospital Gurunagar", "amenity": "hospital", "man_made": null, "shop": null, "tourism": null, "opening_ho": null, "beds": null, "rooms": null, "addr_full": null, "addr_house": null, "addr_stree": null, "addr_city": null }, "geometry": { "type": "Point", "coordinates": [ 80.0195767, 9.6525893 ] } },
{ "type": "Feature", "properties": { "osm_id": "2902312873", "name": "Akkurugoda MOH", "amenity": "hospital", "man_made": null, "shop": null, "tourism": null, "opening_ho": null, "beds": null, "rooms": null, "addr_full": null, "addr_house": null, "addr_stree": null, "addr_city": null }, "geometry": { "type": "Point", "coordinates": [ 80.5007265, 6.0084654 ] } },
{ "type": "Feature", "properties": { "osm_id": "4448921568", "name": "Divisional Hospital Ilavalai", "amenity": "hospital", "man_made": null, "shop": null, "tourism": null, "opening_ho": null, "beds": null, "rooms": null, "addr_full": null, "addr_house": null, "addr_stree": null, "addr_city": null }, "geometry": { "type": "Point", "coordinates": [ 79.9942839, 9.7989445 ] } },
{ "type": "Feature", "properties": { "osm_id": "4449056499", "name": null, "amenity": "hospital", "man_made": null, "shop": null, "tourism": null, "opening_ho": null, "beds": null, "rooms": null, "addr_full": null, "addr_house": null, "addr_stree": null, "addr_city": null }, "geometry": { "type": "Point", "coordinates": [ 80.1789227, 9.8258975 ] } },
{ "type": "Feature", "properties": { "osm_id": "4449065628", "name": null, "amenity": "hospital", "man_made": null, "shop": null, "tourism": null, "opening_ho": null, "beds": null, "rooms": null, "addr_full": null, "addr_house": null, "addr_stree": null, "addr_city": null }, "geometry": { "type": "Point", "coordinates": [ 80.2038454, 9.7932917 ] } },
{ "type": "Feature", "properties": { "osm_id": "255179653", "name": "Sri Jayawardenapura teaching hospital", "amenity": "hospital", "man_made": null, "shop": null, "tourism": null, "opening_ho": null, "beds": null, "rooms": null, "addr_full": null, "addr_house": null, "addr_stree": null, "addr_city": null }, "geometry": { "type": "Point", "coordinates": [ 79.9261518, 6.8683337 ] } },
{ "type": "Feature", "properties": { "osm_id": "4904980063", "name": "Galenbindunuwewa Hospital", "amenity": "hospital", "man_made": null, "shop": null, "tourism": null, "opening_ho": null, "beds": null, "rooms": null, "addr_full": null, "addr_house": null, "addr_stree": null, "addr_city": null }, "geometry": { "type": "Point", "coordinates": [ 80.717070400000011, 8.2885862 ] } },
{ "type": "Feature", "properties": { "osm_id": "4449392003", "name": "Primary Medical Care Unit (PMCU) Point Pedro", "amenity": "hospital", "man_made": null, "shop": null, "tourism": null, "opening_ho": null, "beds": null, "rooms": null, "addr_full": null, "addr_house": null, "addr_stree": null, "addr_city": null }, "geometry": { "type": "Point", "coordinates": [ 80.2385715, 9.8234617 ] } },
{ "type": "Feature", "properties": { "osm_id": "2588694138", "name": "Lunawa Aryuweda Hospital", "amenity": "hospital", "man_made": null, "shop": null, "tourism": null, "opening_ho": null, "beds": null, "rooms": null, "addr_full": null, "addr_house": null, "addr_stree": null, "addr_city": null }, "geometry": { "type": "Point", "coordinates": [ 79.8780478, 6.783547 ] } },
{ "type": "Feature", "properties": { "osm_id": "1843565879", "name": "Biyagama", "amenity": "hospital", "man_made": null, "shop": null, "tourism": null, "opening_ho": null, "beds": null, "rooms": null, "addr_full": null, "addr_house": null, "addr_stree": null, "addr_city": null }, "geometry": { "type": "Point", "coordinates": [ 79.9939404, 6.9469426 ] } },
{ "type": "Feature", "properties": { "osm_id": "4449556414", "name": "Divisional Hospital Ampan", "amenity": "hospital", "man_made": null, "shop": null, "tourism": null, "opening_ho": null, "beds": null, "rooms": null, "addr_full": null, "addr_house": null, "addr_stree": null, "addr_city": null }, "geometry": { "type": "Point", "coordinates": [ 80.2837452, 9.7154776 ] } },
{ "type": "Feature", "properties": { "osm_id": "4561363090", "name": null, "amenity": "hospital", "man_made": null, "shop": null, "tourism": null, "opening_ho": "24\/7", "beds": null, "rooms": null, "addr_full": null, "addr_house": null, "addr_stree": "Trincomalee-Nilaveli-Pulmodai Road", "addr_city": null }, "geometry": { "type": "Point", "coordinates": [ 81.18532110000001, 8.6903302 ] } },
{ "type": "Feature", "properties": { "osm_id": "2339437466", "name": "Suwa Medura", "amenity": "hospital", "man_made": null, "shop": null, "tourism": null, "opening_ho": null, "beds": null, "rooms": null, "addr_full": null, "addr_house": null, "addr_stree": null, "addr_city": null }, "geometry": { "type": "Point", "coordinates": [ 79.9082364, 6.7180437 ] } },
{ "type": "Feature", "properties": { "osm_id": "4449916265", "name": "Primary Medical Care Unit (PMCU) Mulliyan", "amenity": "hospital", "man_made": null, "shop": null, "tourism": null, "opening_ho": null, "beds": null, "rooms": null, "addr_full": null, "addr_house": null, "addr_stree": null, "addr_city": null }, "geometry": { "type": "Point", "coordinates": [ 80.477526, 9.553085 ] } },
{ "type": "Feature", "properties": { "osm_id": "4907040922", "name": null, "amenity": "hospital", "man_made": null, "shop": null, "tourism": null, "opening_ho": null, "beds": null, "rooms": null, "addr_full": null, "addr_house": null, "addr_stree": null, "addr_city": null }, "geometry": { "type": "Point", "coordinates": [ 80.7392932, 6.0507459 ] } },
{ "type": "Feature", "properties": { "osm_id": "5456012528", "name": "Medawala Divisional Hospital", "amenity": "hospital", "man_made": null, "shop": null, "tourism": null, "opening_ho": null, "beds": null, "rooms": null, "addr_full": null, "addr_house": null, "addr_stree": null, "addr_city": null }, "geometry": { "type": "Point", "coordinates": [ 80.5663665, 7.357817 ] } },
{ "type": "Feature", "properties": { "osm_id": "1988112233", "name": "Asiri Laboratory", "amenity": "hospital", "man_made": null, "shop": null, "tourism": null, "opening_ho": null, "beds": null, "rooms": null, "addr_full": null, "addr_house": null, "addr_stree": null, "addr_city": null }, "geometry": { "type": "Point", "coordinates": [ 79.9290176, 6.8920418 ] } },
{ "type": "Feature", "properties": { "osm_id": "2905118777", "name": "ayurweda hospital", "amenity": "hospital", "man_made": null, "shop": null, "tourism": null, "opening_ho": null, "beds": null, "rooms": null, "addr_full": null, "addr_house": null, "addr_stree": null, "addr_city": null }, "geometry": { "type": "Point", "coordinates": [ 80.920467, 6.9020699 ] } },
{ "type": "Feature", "properties": { "osm_id": "3665944325", "name": "Chettikulam Hospital", "amenity": "hospital", "man_made": null, "shop": null, "tourism": null, "opening_ho": null, "beds": null, "rooms": null, "addr_full": null, "addr_house": null, "addr_stree": null, "addr_city": null }, "geometry": { "type": "Point", "coordinates": [ 80.312435, 8.6591013 ] } },
{ "type": "Feature", "properties": { "osm_id": "4451031394", "name": null, "amenity": "hospital", "man_made": null, "shop": null, "tourism": null, "opening_ho": null, "beds": null, "rooms": null, "addr_full": null, "addr_house": null, "addr_stree": null, "addr_city": null }, "geometry": { "type": "Point", "coordinates": [ 80.236665800000011, 9.6778861 ] } },
{ "type": "Feature", "properties": { "osm_id": "4451051809", "name": "Divisional Hospital Varany", "amenity": "hospital", "man_made": null, "shop": null, "tourism": null, "opening_ho": null, "beds": null, "rooms": null, "addr_full": null, "addr_house": null, "addr_stree": null, "addr_city": null }, "geometry": { "type": "Point", "coordinates": [ 80.2261638, 9.7295995 ] } },
{ "type": "Feature", "properties": { "osm_id": "4561921830", "name": null, "amenity": "hospital", "man_made": null, "shop": null, "tourism": null, "opening_ho": null, "beds": null, "rooms": null, "addr_full": null, "addr_house": null, "addr_stree": null, "addr_city": null }, "geometry": { "type": "Point", "coordinates": [ 79.9978653, 9.7254467 ] } },
{ "type": "Feature", "properties": { "osm_id": "2100972630", "name": "Homagama Base Hospital", "amenity": "hospital", "man_made": null, "shop": null, "tourism": null, "opening_ho": null, "beds": null, "rooms": null, "addr_full": null, "addr_house": null, "addr_stree": "Malapalla Road", "addr_city": "Homagama" }, "geometry": { "type": "Point", "coordinates": [ 79.9923651, 6.8469074 ] } },
{ "type": "Feature", "properties": { "osm_id": "6611417521", "name": "Kandy Nursing Home", "amenity": "hospital", "man_made": null, "shop": null, "tourism": null, "opening_ho": null, "beds": null, "rooms": null, "addr_full": null, "addr_house": null, "addr_stree": null, "addr_city": null }, "geometry": { "type": "Point", "coordinates": [ 80.64486, 7.291136 ] } },
{ "type": "Feature", "properties": { "osm_id": "1846323739", "name": null, "amenity": "hospital", "man_made": null, "shop": null, "tourism": null, "opening_ho": null, "beds": null, "rooms": null, "addr_full": null, "addr_house": null, "addr_stree": null, "addr_city": null }, "geometry": { "type": "Point", "coordinates": [ 80.601899100000011, 5.9637929 ] } },
{ "type": "Feature", "properties": { "osm_id": "1993203085", "name": "Divisional Hospital", "amenity": "hospital", "man_made": null, "shop": null, "tourism": null, "opening_ho": null, "beds": null, "rooms": null, "addr_full": null, "addr_house": null, "addr_stree": null, "addr_city": null }, "geometry": { "type": "Point", "coordinates": [ 81.0110016, 6.7879708 ] } },
{ "type": "Feature", "properties": { "osm_id": "2340164320", "name": "OSRO Hospital", "amenity": "hospital", "man_made": null, "shop": null, "tourism": null, "opening_ho": null, "beds": null, "rooms": null, "addr_full": null, "addr_house": null, "addr_stree": null, "addr_city": "Mawanella" }, "geometry": { "type": "Point", "coordinates": [ 80.4497877, 7.2510461 ] } },
{ "type": "Feature", "properties": { "osm_id": "4045200420", "name": "Base Hospital", "amenity": "hospital", "man_made": null, "shop": null, "tourism": null, "opening_ho": null, "beds": null, "rooms": null, "addr_full": null, "addr_house": null, "addr_stree": "Pelmadulla - Embilipitiya - Nonagama Highway", "addr_city": "Kahawatta" }, "geometry": { "type": "Point", "coordinates": [ 80.575266, 6.5786992 ] } },
{ "type": "Feature", "properties": { "osm_id": "2340165236", "name": "Base Hospital Mawanella", "amenity": "hospital", "man_made": null, "shop": null, "tourism": null, "opening_ho": null, "beds": null, "rooms": null, "addr_full": null, "addr_house": null, "addr_stree": null, "addr_city": "Mawanella" }, "geometry": { "type": "Point", "coordinates": [ 80.4458988, 7.2536811 ] } },
{ "type": "Feature", "properties": { "osm_id": "3666719252", "name": "Hemas Hospital", "amenity": "hospital", "man_made": null, "shop": null, "tourism": null, "opening_ho": null, "beds": null, "rooms": null, "addr_full": null, "addr_house": null, "addr_stree": null, "addr_city": "Thalawathugoda" }, "geometry": { "type": "Point", "coordinates": [ 79.9352197, 6.878412 ] } },
{ "type": "Feature", "properties": { "osm_id": "3967289227", "name": "Pavatkulam Divisional Hospital", "amenity": "hospital", "man_made": null, "shop": null, "tourism": null, "opening_ho": null, "beds": null, "rooms": null, "addr_full": null, "addr_house": null, "addr_stree": null, "addr_city": null }, "geometry": { "type": "Point", "coordinates": [ 80.4209895, 8.7059888 ] } },
{ "type": "Feature", "properties": { "osm_id": "4234983191", "name": "Central Dispensary - Kalagedihena", "amenity": "hospital", "man_made": null, "shop": null, "tourism": null, "opening_ho": null, "beds": null, "rooms": null, "addr_full": null, "addr_house": null, "addr_stree": null, "addr_city": null }, "geometry": { "type": "Point", "coordinates": [ 80.05442690000001, 7.1143621 ] } },
{ "type": "Feature", "properties": { "osm_id": "4910764095", "name": "Dambulla Ayurveda Hospital", "amenity": "hospital", "man_made": null, "shop": null, "tourism": null, "opening_ho": null, "beds": null, "rooms": null, "addr_full": null, "addr_house": null, "addr_stree": "Kurunegala - Dambulla Road", "addr_city": "Dambulla" }, "geometry": { "type": "Point", "coordinates": [ 80.64874660000001, 7.8741635 ] } },
{ "type": "Feature", "properties": { "osm_id": "1796819687", "name": "Padukka Base Hospital", "amenity": "hospital", "man_made": null, "shop": null, "tourism": null, "opening_ho": null, "beds": null, "rooms": null, "addr_full": null, "addr_house": null, "addr_stree": null, "addr_city": null }, "geometry": { "type": "Point", "coordinates": [ 80.0896596, 6.8400553 ] } },
{ "type": "Feature", "properties": { "osm_id": "2610271942", "name": "Primary Health Care Centre", "amenity": "hospital", "man_made": null, "shop": null, "tourism": null, "opening_ho": null, "beds": null, "rooms": null, "addr_full": null, "addr_house": null, "addr_stree": null, "addr_city": null }, "geometry": { "type": "Point", "coordinates": [ 80.2494948, 6.3023167 ] } },
{ "type": "Feature", "properties": { "osm_id": "1796922719", "name": "Base Hospital", "amenity": "hospital", "man_made": null, "shop": null, "tourism": null, "opening_ho": null, "beds": null, "rooms": null, "addr_full": null, "addr_house": null, "addr_stree": null, "addr_city": null }, "geometry": { "type": "Point", "coordinates": [ 80.1789289, 6.6451235 ] } },
{ "type": "Feature", "properties": { "osm_id": "2610318045", "name": "Rural Hospital", "amenity": "hospital", "man_made": null, "shop": null, "tourism": null, "opening_ho": null, "beds": null, "rooms": null, "addr_full": null, "addr_house": null, "addr_stree": null, "addr_city": null }, "geometry": { "type": "Point", "coordinates": [ 80.4016012, 6.2882861 ] } },
{ "type": "Feature", "properties": { "osm_id": "4405229473", "name": "Divisional Hospital Vidathalthivu", "amenity": "hospital", "man_made": null, "shop": null, "tourism": null, "opening_ho": null, "beds": null, "rooms": null, "addr_full": null, "addr_house": null, "addr_stree": null, "addr_city": null }, "geometry": { "type": "Point", "coordinates": [ 80.0655415, 9.0109302 ] } },
{ "type": "Feature", "properties": { "osm_id": "4235158961", "name": "Gallinda Base Hospital", "amenity": "hospital", "man_made": null, "shop": null, "tourism": null, "opening_ho": null, "beds": null, "rooms": null, "addr_full": null, "addr_house": null, "addr_stree": null, "addr_city": null }, "geometry": { "type": "Point", "coordinates": [ 80.2678824, 6.2451002 ] } },
{ "type": "Feature", "properties": { "osm_id": "1796922986", "name": "Athura Hospital", "amenity": "hospital", "man_made": null, "shop": null, "tourism": null, "opening_ho": null, "beds": null, "rooms": null, "addr_full": null, "addr_house": null, "addr_stree": null, "addr_city": null }, "geometry": { "type": "Point", "coordinates": [ 80.1794385, 6.6448198 ] } },
{ "type": "Feature", "properties": { "osm_id": "4045295751", "name": "District Hospital", "amenity": "hospital", "man_made": null, "shop": null, "tourism": null, "opening_ho": null, "beds": null, "rooms": null, "addr_full": null, "addr_house": null, "addr_stree": "Rathnapura - Embilipitiya Road", "addr_city": "Godakawela" }, "geometry": { "type": "Point", "coordinates": [ 80.65651, 6.5018627 ] } },
{ "type": "Feature", "properties": { "osm_id": "5248273022", "name": null, "amenity": "hospital", "man_made": null, "shop": null, "tourism": null, "opening_ho": null, "beds": null, "rooms": null, "addr_full": null, "addr_house": null, "addr_stree": null, "addr_city": null }, "geometry": { "type": "Point", "coordinates": [ 79.90053540000001, 7.0188878 ] } },
{ "type": "Feature", "properties": { "osm_id": "1268340408", "name": "Singer Mega", "amenity": "hospital", "man_made": null, "shop": "convenience", "tourism": null, "opening_ho": null, "beds": null, "rooms": null, "addr_full": null, "addr_house": null, "addr_stree": "Negombo-Colombo Road", "addr_city": null }, "geometry": { "type": "Point", "coordinates": [ 79.8497222, 7.2092833 ] } },
{ "type": "Feature", "properties": { "osm_id": "4405236389", "name": "Divisional Hospital Adampan", "amenity": "hospital", "man_made": null, "shop": null, "tourism": null, "opening_ho": null, "beds": null, "rooms": null, "addr_full": null, "addr_house": null, "addr_stree": null, "addr_city": null }, "geometry": { "type": "Point", "coordinates": [ 79.9966791, 8.943329 ] } },
{ "type": "Feature", "properties": { "osm_id": "4350798591", "name": "Bandaranayake Private Hospital", "amenity": "hospital", "man_made": null, "shop": null, "tourism": null, "opening_ho": null, "beds": null, "rooms": null, "addr_full": null, "addr_house": null, "addr_stree": null, "addr_city": null }, "geometry": { "type": "Point", "coordinates": [ 80.111786, 7.126219 ] } },
{ "type": "Feature", "properties": { "osm_id": "4045303043", "name": "District Hospital", "amenity": "hospital", "man_made": null, "shop": null, "tourism": null, "opening_ho": null, "beds": null, "rooms": null, "addr_full": null, "addr_house": null, "addr_stree": "Bulutota Road", "addr_city": "Rakwana" }, "geometry": { "type": "Point", "coordinates": [ 80.614724, 6.4715878 ] } },
{ "type": "Feature", "properties": { "osm_id": "5181352383", "name": "Godahena Rural Hospital", "amenity": "hospital", "man_made": null, "shop": null, "tourism": null, "opening_ho": null, "beds": null, "rooms": null, "addr_full": null, "addr_house": null, "addr_stree": null, "addr_city": null }, "geometry": { "type": "Point", "coordinates": [ 80.5788187, 7.3999425 ] } },
{ "type": "Feature", "properties": { "osm_id": "2342937786", "name": "Pallekele Ayurveda Hospital", "amenity": "hospital", "man_made": null, "shop": null, "tourism": null, "opening_ho": null, "beds": null, "rooms": null, "addr_full": null, "addr_house": null, "addr_stree": null, "addr_city": null }, "geometry": { "type": "Point", "coordinates": [ 80.707034400000012, 7.2714146 ] } },
{ "type": "Feature", "properties": { "osm_id": "679004906", "name": "Maccarthy Private Hospital", "amenity": "hospital", "man_made": null, "shop": null, "tourism": null, "opening_ho": null, "beds": null, "rooms": null, "addr_full": null, "addr_house": null, "addr_stree": null, "addr_city": null }, "geometry": { "type": "Point", "coordinates": [ 79.869756700000011, 6.9139635 ] } },
{ "type": "Feature", "properties": { "osm_id": "4405536098", "name": "Batumulla Divisional Hospital", "amenity": "hospital", "man_made": null, "shop": null, "tourism": null, "opening_ho": null, "beds": null, "rooms": null, "addr_full": null, "addr_house": null, "addr_stree": "Batumula Rd", "addr_city": null }, "geometry": { "type": "Point", "coordinates": [ 80.9369035, 7.4142948 ] } },
{ "type": "Feature", "properties": { "osm_id": "2343111695", "name": "Yakghapitiya Divisional Hospital", "amenity": "hospital", "man_made": null, "shop": null, "tourism": null, "opening_ho": null, "beds": null, "rooms": null, "addr_full": null, "addr_house": null, "addr_stree": null, "addr_city": null }, "geometry": { "type": "Point", "coordinates": [ 80.6676499, 7.298646 ] } },
{ "type": "Feature", "properties": { "osm_id": "4405856550", "name": "Divisional Hospital Murunkan", "amenity": "hospital", "man_made": null, "shop": null, "tourism": null, "opening_ho": null, "beds": null, "rooms": null, "addr_full": null, "addr_house": null, "addr_stree": null, "addr_city": null }, "geometry": { "type": "Point", "coordinates": [ 80.0378205, 8.8366766 ] } },
{ "type": "Feature", "properties": { "osm_id": "1994693274", "name": "Base Hospital", "amenity": "hospital", "man_made": null, "shop": null, "tourism": null, "opening_ho": null, "beds": null, "rooms": null, "addr_full": null, "addr_house": null, "addr_stree": null, "addr_city": "Kalawana" }, "geometry": { "type": "Point", "coordinates": [ 80.3974002, 6.5306079 ] } },
{ "type": "Feature", "properties": { "osm_id": "2610405672", "name": "Rural Hospital", "amenity": "hospital", "man_made": null, "shop": null, "tourism": null, "opening_ho": null, "beds": null, "rooms": null, "addr_full": null, "addr_house": null, "addr_stree": null, "addr_city": null }, "geometry": { "type": "Point", "coordinates": [ 80.8800558, 6.2343884 ] } },
{ "type": "Feature", "properties": { "osm_id": "2112572119", "name": "Galewela Base Hospital", "amenity": "hospital", "man_made": null, "shop": null, "tourism": null, "opening_ho": null, "beds": null, "rooms": null, "addr_full": null, "addr_house": null, "addr_stree": "Kurunegala-Dambulla Road", "addr_city": "Galewela" }, "geometry": { "type": "Point", "coordinates": [ 80.5716613, 7.7606317 ] } },
{ "type": "Feature", "properties": { "osm_id": "1994920168", "name": "Base Hospital", "amenity": "hospital", "man_made": null, "shop": null, "tourism": null, "opening_ho": null, "beds": null, "rooms": null, "addr_full": null, "addr_house": null, "addr_stree": null, "addr_city": "Ratnapura" }, "geometry": { "type": "Point", "coordinates": [ 80.3924992, 6.6871447 ] } },
{ "type": "Feature", "properties": { "osm_id": "267079027", "name": "Castle Street Hospital for Women", "amenity": "hospital", "man_made": null, "shop": null, "tourism": null, "opening_ho": null, "beds": null, "rooms": null, "addr_full": null, "addr_house": null, "addr_stree": "Castle Street", "addr_city": "Colombo 08" }, "geometry": { "type": "Point", "coordinates": [ 79.884706, 6.9107553 ] } },
{ "type": "Feature", "properties": { "osm_id": "267082455", "name": "Durdans Hospital", "amenity": "hospital", "man_made": null, "shop": null, "tourism": null, "opening_ho": null, "beds": null, "rooms": null, "addr_full": null, "addr_house": null, "addr_stree": null, "addr_city": null }, "geometry": { "type": "Point", "coordinates": [ 79.853366900000012, 6.9019886 ] } },
{ "type": "Feature", "properties": { "osm_id": "1640241532", "name": "Rural Hospital", "amenity": "hospital", "man_made": null, "shop": null, "tourism": null, "opening_ho": null, "beds": null, "rooms": null, "addr_full": null, "addr_house": null, "addr_stree": "Colombo -Matara Road", "addr_city": "Mirissa" }, "geometry": { "type": "Point", "coordinates": [ 80.4541208, 5.9531215 ] } },
{ "type": "Feature", "properties": { "osm_id": "5907970351", "name": "Katupotha Divisional Hospital", "amenity": "hospital", "man_made": null, "shop": null, "tourism": null, "opening_ho": null, "beds": null, "rooms": null, "addr_full": null, "addr_house": null, "addr_stree": null, "addr_city": null }, "geometry": { "type": "Point", "coordinates": [ 80.186600500000011, 7.5336572 ] } },
{ "type": "Feature", "properties": { "osm_id": "4510281472", "name": "Yarl Hospital", "amenity": "hospital", "man_made": null, "shop": null, "tourism": null, "opening_ho": null, "beds": null, "rooms": null, "addr_full": null, "addr_house": null, "addr_stree": null, "addr_city": null }, "geometry": { "type": "Point", "coordinates": [ 80.024335900000011, 9.6817059 ] } },
{ "type": "Feature", "properties": { "osm_id": "5185617923", "name": null, "amenity": "hospital", "man_made": null, "shop": null, "tourism": null, "opening_ho": null, "beds": null, "rooms": null, "addr_full": null, "addr_house": null, "addr_stree": "Hospital Road", "addr_city": null }, "geometry": { "type": "Point", "coordinates": [ 80.0127075, 9.6664323 ] } },
{ "type": "Feature", "properties": { "osm_id": "2001999417", "name": "Mahaoya Base Hospital", "amenity": "hospital", "man_made": null, "shop": null, "tourism": null, "opening_ho": null, "beds": null, "rooms": null, "addr_full": null, "addr_house": null, "addr_stree": null, "addr_city": null }, "geometry": { "type": "Point", "coordinates": [ 81.3555798, 7.5309537 ] } },
{ "type": "Feature", "properties": { "osm_id": "4124124130", "name": "Divisional Hospital Oddusuddan", "amenity": "hospital", "man_made": null, "shop": null, "tourism": null, "opening_ho": null, "beds": null, "rooms": null, "addr_full": null, "addr_house": null, "addr_stree": null, "addr_city": "Oddusuddan" }, "geometry": { "type": "Point", "coordinates": [ 80.6604767, 9.1627819 ] } },
{ "type": "Feature", "properties": { "osm_id": "4451163156", "name": "Primary Medical Care Unit (PMCU) Kurumpasiddy", "amenity": "hospital", "man_made": null, "shop": null, "tourism": null, "opening_ho": null, "beds": null, "rooms": null, "addr_full": null, "addr_house": null, "addr_stree": null, "addr_city": null }, "geometry": { "type": "Point", "coordinates": [ 80.0636819, 9.7727859 ] } },
{ "type": "Feature", "properties": { "osm_id": "2124720725", "name": "Lions Eye Hospital", "amenity": "hospital", "man_made": null, "shop": null, "tourism": null, "opening_ho": null, "beds": null, "rooms": null, "addr_full": null, "addr_house": null, "addr_stree": null, "addr_city": "Gothatuwa" }, "geometry": { "type": "Point", "coordinates": [ 79.9123243, 6.927259 ] } },
{ "type": "Feature", "properties": { "osm_id": "3377388729", "name": "Base Hospital", "amenity": "hospital", "man_made": null, "shop": null, "tourism": null, "opening_ho": null, "beds": null, "rooms": null, "addr_full": null, "addr_house": null, "addr_stree": null, "addr_city": "Tangalle" }, "geometry": { "type": "Point", "coordinates": [ 80.796872, 6.0227057 ] } },
{ "type": "Feature", "properties": { "osm_id": "3983331257", "name": "Neriyakulam Divisional Hospital", "amenity": "hospital", "man_made": null, "shop": null, "tourism": null, "opening_ho": null, "beds": null, "rooms": null, "addr_full": null, "addr_house": null, "addr_stree": null, "addr_city": null }, "geometry": { "type": "Point", "coordinates": [ 80.3701343, 8.6016568 ] } },
{ "type": "Feature", "properties": { "osm_id": "3874862041", "name": "Rural Ayurvedic Hospital", "amenity": "hospital", "man_made": null, "shop": null, "tourism": null, "opening_ho": null, "beds": null, "rooms": null, "addr_full": null, "addr_house": null, "addr_stree": null, "addr_city": null }, "geometry": { "type": "Point", "coordinates": [ 80.8807052, 6.8312378 ] } },
{ "type": "Feature", "properties": { "osm_id": "4807046521", "name": "Asiri Central", "amenity": "hospital", "man_made": null, "shop": null, "tourism": null, "opening_ho": null, "beds": null, "rooms": null, "addr_full": null, "addr_house": null, "addr_stree": null, "addr_city": null }, "geometry": { "type": "Point", "coordinates": [ 79.8657533, 6.9203778 ] } },
{ "type": "Feature", "properties": { "osm_id": "308503097", "name": "Helmut Kohl Maternity Hospital", "amenity": "hospital", "man_made": null, "shop": null, "tourism": null, "opening_ho": null, "beds": null, "rooms": null, "addr_full": null, "addr_house": null, "addr_stree": null, "addr_city": null }, "geometry": { "type": "Point", "coordinates": [ 80.2233988, 6.0675848 ] } },
{ "type": "Feature", "properties": { "osm_id": "3590070473", "name": "Medagoda", "amenity": "hospital", "man_made": null, "shop": null, "tourism": null, "opening_ho": null, "beds": null, "rooms": null, "addr_full": null, "addr_house": null, "addr_stree": null, "addr_city": null }, "geometry": { "type": "Point", "coordinates": [ 80.4959268, 5.9509878 ] } },
{ "type": "Feature", "properties": { "osm_id": "4244114941", "name": "Western Dispensary", "amenity": "hospital", "man_made": null, "shop": null, "tourism": null, "opening_ho": null, "beds": null, "rooms": null, "addr_full": null, "addr_house": null, "addr_stree": null, "addr_city": null }, "geometry": { "type": "Point", "coordinates": [ 79.8842195, 6.9130519 ] } },
{ "type": "Feature", "properties": { "osm_id": "681802896", "name": "De Soysa Hospital for Women", "amenity": "hospital", "man_made": null, "shop": null, "tourism": null, "opening_ho": null, "beds": null, "rooms": null, "addr_full": null, "addr_house": null, "addr_stree": "Kynsey Road", "addr_city": "Colombo 10" }, "geometry": { "type": "Point", "coordinates": [ 79.8702449, 6.9198065 ] } },
{ "type": "Feature", "properties": { "osm_id": "1856812558", "name": "Wanniarachchi Medical Center", "amenity": "hospital", "man_made": null, "shop": null, "tourism": null, "opening_ho": null, "beds": null, "rooms": null, "addr_full": null, "addr_house": null, "addr_stree": null, "addr_city": null }, "geometry": { "type": "Point", "coordinates": [ 80.23786770000001, 7.2950405 ] } },
{ "type": "Feature", "properties": { "osm_id": "1803806024", "name": "Kelani Valley Private Hospital", "amenity": "hospital", "man_made": null, "shop": null, "tourism": null, "opening_ho": null, "beds": null, "rooms": null, "addr_full": null, "addr_house": null, "addr_stree": null, "addr_city": "Avissawella" }, "geometry": { "type": "Point", "coordinates": [ 80.2064918, 6.955555 ] } },
{ "type": "Feature", "properties": { "osm_id": "1650226106", "name": "Ayurveda Corporation", "amenity": "hospital", "man_made": null, "shop": null, "tourism": null, "opening_ho": null, "beds": null, "rooms": null, "addr_full": null, "addr_house": null, "addr_stree": null, "addr_city": "Nawinna" }, "geometry": { "type": "Point", "coordinates": [ 79.9176997, 6.855884 ] } },
{ "type": "Feature", "properties": { "osm_id": "1804690664", "name": "Base Hospital", "amenity": "hospital", "man_made": null, "shop": null, "tourism": null, "opening_ho": null, "beds": null, "rooms": null, "addr_full": null, "addr_house": null, "addr_stree": null, "addr_city": "Avissawella" }, "geometry": { "type": "Point", "coordinates": [ 80.2080063, 6.9545295 ] } },
{ "type": "Feature", "properties": { "osm_id": "5356102193", "name": "Mawathagama Divisional Hospital", "amenity": "hospital", "man_made": null, "shop": null, "tourism": null, "opening_ho": null, "beds": null, "rooms": null, "addr_full": null, "addr_house": null, "addr_stree": null, "addr_city": null }, "geometry": { "type": "Point", "coordinates": [ 80.4480207, 7.4403955 ] } },
{ "type": "Feature", "properties": { "osm_id": "310166807", "name": "Co-op Hospital", "amenity": "hospital", "man_made": null, "shop": null, "tourism": null, "opening_ho": null, "beds": null, "rooms": null, "addr_full": null, "addr_house": null, "addr_stree": null, "addr_city": null }, "geometry": { "type": "Point", "coordinates": [ 80.2161531, 6.0366488 ] } },
{ "type": "Feature", "properties": { "osm_id": "1650227458", "name": "Nursing Home", "amenity": "hospital", "man_made": null, "shop": null, "tourism": null, "opening_ho": null, "beds": null, "rooms": null, "addr_full": null, "addr_house": null, "addr_stree": "High Level Road", "addr_city": "Wattegedara Junction" }, "geometry": { "type": "Point", "coordinates": [ 79.9215162, 6.8507988 ] } },
{ "type": "Feature", "properties": { "osm_id": "1805745347", "name": "Karawanella Base Hospital", "amenity": "hospital", "man_made": null, "shop": null, "tourism": null, "opening_ho": null, "beds": null, "rooms": null, "addr_full": null, "addr_house": null, "addr_stree": null, "addr_city": "Karawanella SGP" }, "geometry": { "type": "Point", "coordinates": [ 80.261432, 7.0245178 ] } },
{ "type": "Feature", "properties": { "osm_id": "310166824", "name": "Hemas Southern Hospital", "amenity": "hospital", "man_made": null, "shop": null, "tourism": null, "opening_ho": null, "beds": null, "rooms": null, "addr_full": null, "addr_house": null, "addr_stree": null, "addr_city": null }, "geometry": { "type": "Point", "coordinates": [ 80.216150500000012, 6.0358559 ] } },
{ "type": "Feature", "properties": { "osm_id": "4921735461", "name": "Lunugala District Hospital", "amenity": "hospital", "man_made": null, "shop": null, "tourism": null, "opening_ho": null, "beds": null, "rooms": null, "addr_full": null, "addr_house": null, "addr_stree": null, "addr_city": null }, "geometry": { "type": "Point", "coordinates": [ 81.2009194, 7.037552 ] } },
{ "type": "Feature", "properties": { "osm_id": "3590215199", "name": "Nildandahinna Genaral Hospital", "amenity": "hospital", "man_made": null, "shop": null, "tourism": null, "opening_ho": null, "beds": null, "rooms": null, "addr_full": null, "addr_house": null, "addr_stree": null, "addr_city": null }, "geometry": { "type": "Point", "coordinates": [ 80.8925778, 7.0785193 ] } },
{ "type": "Feature", "properties": { "osm_id": "2908855537", "name": "General Hospital Kandy", "amenity": "hospital", "man_made": null, "shop": null, "tourism": null, "opening_ho": null, "beds": null, "rooms": null, "addr_full": null, "addr_house": null, "addr_stree": null, "addr_city": null }, "geometry": { "type": "Point", "coordinates": [ 80.63231660000001, 7.2873379 ] } },
{ "type": "Feature", "properties": { "osm_id": "3992483614", "name": "Divisional Hospital", "amenity": "hospital", "man_made": null, "shop": null, "tourism": null, "opening_ho": null, "beds": null, "rooms": null, "addr_full": null, "addr_house": null, "addr_stree": null, "addr_city": null }, "geometry": { "type": "Point", "coordinates": [ 81.71355530000001, 7.2498267 ] } },
{ "type": "Feature", "properties": { "osm_id": "2910213594", "name": null, "amenity": "hospital", "man_made": null, "shop": null, "tourism": null, "opening_ho": null, "beds": null, "rooms": null, "addr_full": null, "addr_house": null, "addr_stree": null, "addr_city": null }, "geometry": { "type": "Point", "coordinates": [ 80.0413396, 6.2934953 ] } },
{ "type": "Feature", "properties": { "osm_id": "2910216436", "name": "Aurvedic Center", "amenity": "hospital", "man_made": null, "shop": null, "tourism": null, "opening_ho": null, "beds": null, "rooms": null, "addr_full": null, "addr_house": null, "addr_stree": null, "addr_city": null }, "geometry": { "type": "Point", "coordinates": [ 80.4113074, 8.3265775 ] } },
{ "type": "Feature", "properties": { "osm_id": "5188232523", "name": null, "amenity": "hospital", "man_made": null, "shop": null, "tourism": null, "opening_ho": null, "beds": null, "rooms": null, "addr_full": null, "addr_house": null, "addr_stree": "union place", "addr_city": null }, "geometry": { "type": "Point", "coordinates": [ 79.857624800000011, 6.9206251 ] } },
{ "type": "Feature", "properties": { "osm_id": "1269994640", "name": "Negombo General Hospital", "amenity": "hospital", "man_made": null, "shop": null, "tourism": null, "opening_ho": null, "beds": null, "rooms": null, "addr_full": null, "addr_house": null, "addr_stree": null, "addr_city": "Negomno" }, "geometry": { "type": "Point", "coordinates": [ 79.84844480000001, 7.2123015 ] } },
{ "type": "Feature", "properties": { "osm_id": "2910342845", "name": "Dental Surgeon Private", "amenity": "hospital", "man_made": null, "shop": null, "tourism": null, "opening_ho": null, "beds": null, "rooms": null, "addr_full": null, "addr_house": null, "addr_stree": null, "addr_city": null }, "geometry": { "type": "Point", "coordinates": [ 79.9616363, 7.0685704 ] } },
{ "type": "Feature", "properties": { "osm_id": "4451525458", "name": "Pussellawa Hospital", "amenity": "hospital", "man_made": null, "shop": null, "tourism": null, "opening_ho": null, "beds": null, "rooms": null, "addr_full": null, "addr_house": null, "addr_stree": null, "addr_city": null }, "geometry": { "type": "Point", "coordinates": [ 80.625246600000011, 7.1162933 ] } },
{ "type": "Feature", "properties": { "osm_id": "5623747063", "name": null, "amenity": "hospital", "man_made": null, "shop": null, "tourism": null, "opening_ho": null, "beds": null, "rooms": null, "addr_full": null, "addr_house": null, "addr_stree": null, "addr_city": null }, "geometry": { "type": "Point", "coordinates": [ 81.5599545, 7.915977 ] } },
{ "type": "Feature", "properties": { "osm_id": "2370163010", "name": "Imaduwa Hospital", "amenity": "hospital", "man_made": null, "shop": null, "tourism": null, "opening_ho": null, "beds": null, "rooms": null, "addr_full": null, "addr_house": null, "addr_stree": null, "addr_city": null }, "geometry": { "type": "Point", "coordinates": [ 80.391441, 6.0378367 ] } },
{ "type": "Feature", "properties": { "osm_id": "2145047458", "name": "Lady Ridgeway Hospital - ETU", "amenity": "hospital", "man_made": null, "shop": null, "tourism": null, "opening_ho": null, "beds": null, "rooms": null, "addr_full": null, "addr_house": null, "addr_stree": null, "addr_city": null }, "geometry": { "type": "Point", "coordinates": [ 79.8756536, 6.9174677 ] } },
{ "type": "Feature", "properties": { "osm_id": "4452191892", "name": "Sidha Medicine Teaching Hospital", "amenity": "hospital", "man_made": null, "shop": null, "tourism": null, "opening_ho": null, "beds": null, "rooms": null, "addr_full": null, "addr_house": null, "addr_stree": null, "addr_city": null }, "geometry": { "type": "Point", "coordinates": [ 80.0941832, 9.6704278 ] } },
{ "type": "Feature", "properties": { "osm_id": "4452191894", "name": "Primary Medical Care Unit (PMCU) Kaithady", "amenity": "hospital", "man_made": null, "shop": null, "tourism": null, "opening_ho": null, "beds": null, "rooms": null, "addr_full": null, "addr_house": null, "addr_stree": null, "addr_city": null }, "geometry": { "type": "Point", "coordinates": [ 80.0904193, 9.6697389 ] } },
{ "type": "Feature", "properties": { "osm_id": "4452212068", "name": "Primary Medical Care Unit (PMCU) Punnalaikadduvan", "amenity": "hospital", "man_made": null, "shop": null, "tourism": null, "opening_ho": null, "beds": null, "rooms": null, "addr_full": null, "addr_house": null, "addr_stree": null, "addr_city": null }, "geometry": { "type": "Point", "coordinates": [ 80.058077, 9.750513 ] } },
{ "type": "Feature", "properties": { "osm_id": "4452212069", "name": "Primary Medical Care Unit (PMCU) Urumpirai", "amenity": "hospital", "man_made": null, "shop": null, "tourism": null, "opening_ho": null, "beds": null, "rooms": null, "addr_full": null, "addr_house": null, "addr_stree": null, "addr_city": null }, "geometry": { "type": "Point", "coordinates": [ 80.0459595, 9.7203939 ] } },
{ "type": "Feature", "properties": { "osm_id": "3880396357", "name": "Co-operative Hospital", "amenity": "hospital", "man_made": null, "shop": null, "tourism": null, "opening_ho": null, "beds": null, "rooms": null, "addr_full": null, "addr_house": null, "addr_stree": null, "addr_city": null }, "geometry": { "type": "Point", "coordinates": [ 80.7656051, 6.9779048 ] } },
{ "type": "Feature", "properties": { "osm_id": "3880398627", "name": "Medisi Channel Centre", "amenity": "hospital", "man_made": null, "shop": null, "tourism": null, "opening_ho": null, "beds": null, "rooms": null, "addr_full": null, "addr_house": null, "addr_stree": null, "addr_city": null }, "geometry": { "type": "Point", "coordinates": [ 80.7673681, 6.974379 ] } },
{ "type": "Feature", "properties": { "osm_id": "1867157681", "name": "Mahawa Base Hospital", "amenity": "hospital", "man_made": null, "shop": null, "tourism": null, "opening_ho": null, "beds": null, "rooms": null, "addr_full": null, "addr_house": null, "addr_stree": null, "addr_city": null }, "geometry": { "type": "Point", "coordinates": [ 80.2824677, 7.8235267 ] } },
{ "type": "Feature", "properties": { "osm_id": "5920078688", "name": "fdsg", "amenity": "hospital", "man_made": null, "shop": null, "tourism": null, "opening_ho": null, "beds": null, "rooms": null, "addr_full": null, "addr_house": null, "addr_stree": null, "addr_city": null }, "geometry": { "type": "Point", "coordinates": [ 80.2655181, 6.2879 ] } },
{ "type": "Feature", "properties": { "osm_id": "4817680821", "name": null, "amenity": "hospital", "man_made": null, "shop": null, "tourism": null, "opening_ho": null, "beds": null, "rooms": null, "addr_full": null, "addr_house": null, "addr_stree": null, "addr_city": null }, "geometry": { "type": "Point", "coordinates": [ 80.7407495, 6.0515105 ] } },
{ "type": "Feature", "properties": { "osm_id": "5920078709", "name": "fdsg", "amenity": "hospital", "man_made": null, "shop": null, "tourism": null, "opening_ho": null, "beds": null, "rooms": null, "addr_full": null, "addr_house": null, "addr_stree": null, "addr_city": null }, "geometry": { "type": "Point", "coordinates": [ 80.264631200000011, 6.2889162 ] } },
{ "type": "Feature", "properties": { "osm_id": "2146223914", "name": "Erathna Rural Hospital", "amenity": "hospital", "man_made": null, "shop": null, "tourism": null, "opening_ho": null, "beds": null, "rooms": null, "addr_full": null, "addr_house": null, "addr_stree": null, "addr_city": null }, "geometry": { "type": "Point", "coordinates": [ 80.408011, 6.8345106 ] } },
{ "type": "Feature", "properties": { "osm_id": "4452972822", "name": "Divisional Hospital Nainativu", "amenity": "hospital", "man_made": null, "shop": null, "tourism": null, "opening_ho": null, "beds": null, "rooms": null, "addr_full": null, "addr_house": null, "addr_stree": null, "addr_city": null }, "geometry": { "type": "Point", "coordinates": [ 79.7730665, 9.6048881 ] } },
{ "type": "Feature", "properties": { "osm_id": "2026668068", "name": "Colombo Friend-in-Need Society", "amenity": "hospital", "man_made": null, "shop": null, "tourism": null, "opening_ho": null, "beds": null, "rooms": null, "addr_full": null, "addr_house": null, "addr_stree": null, "addr_city": null }, "geometry": { "type": "Point", "coordinates": [ 79.8559089, 6.9164093 ] } },
{ "type": "Feature", "properties": { "osm_id": "6615719550", "name": "Free Dispensary", "amenity": "hospital", "man_made": null, "shop": null, "tourism": null, "opening_ho": null, "beds": null, "rooms": null, "addr_full": null, "addr_house": null, "addr_stree": null, "addr_city": "Colombo" }, "geometry": { "type": "Point", "coordinates": [ 79.8649812, 6.9647924 ] } },
{ "type": "Feature", "properties": { "osm_id": "2913891490", "name": null, "amenity": "hospital", "man_made": null, "shop": null, "tourism": null, "opening_ho": null, "beds": null, "rooms": null, "addr_full": null, "addr_house": null, "addr_stree": null, "addr_city": null }, "geometry": { "type": "Point", "coordinates": [ 80.5928891, 7.2135973 ] } },
{ "type": "Feature", "properties": { "osm_id": "3691169013", "name": "Divisional Hospital", "amenity": "hospital", "man_made": null, "shop": null, "tourism": null, "opening_ho": null, "beds": null, "rooms": null, "addr_full": null, "addr_house": null, "addr_stree": null, "addr_city": "Mundalama" }, "geometry": { "type": "Point", "coordinates": [ 79.8276202, 7.7887782 ] } },
{ "type": "Feature", "properties": { "osm_id": "2915434805", "name": "Welimada Base Hospital", "amenity": "hospital", "man_made": null, "shop": null, "tourism": null, "opening_ho": null, "beds": null, "rooms": null, "addr_full": null, "addr_house": null, "addr_stree": null, "addr_city": null }, "geometry": { "type": "Point", "coordinates": [ 80.9087119, 6.9090322 ] } },
{ "type": "Feature", "properties": { "osm_id": "3519925423", "name": "Divisional Hodpital Pungudutivu", "amenity": "hospital", "man_made": null, "shop": null, "tourism": null, "opening_ho": null, "beds": null, "rooms": null, "addr_full": null, "addr_house": null, "addr_stree": null, "addr_city": null }, "geometry": { "type": "Point", "coordinates": [ 79.83013050000001, 9.5725062 ] } },
{ "type": "Feature", "properties": { "osm_id": "4515019298", "name": null, "amenity": "hospital", "man_made": null, "shop": null, "tourism": null, "opening_ho": null, "beds": null, "rooms": null, "addr_full": null, "addr_house": null, "addr_stree": null, "addr_city": null }, "geometry": { "type": "Point", "coordinates": [ 81.5484357, 6.9062215 ] } },
{ "type": "Feature", "properties": { "osm_id": "4254145900", "name": "Divisional Hospital", "amenity": "hospital", "man_made": null, "shop": null, "tourism": null, "opening_ho": null, "beds": null, "rooms": null, "addr_full": null, "addr_house": null, "addr_stree": null, "addr_city": "Nilaveli" }, "geometry": { "type": "Point", "coordinates": [ 81.192962900000012, 8.6814799 ] } },
{ "type": "Feature", "properties": { "osm_id": "4059498582", "name": "ht", "amenity": "hospital", "man_made": null, "shop": null, "tourism": null, "opening_ho": null, "beds": null, "rooms": null, "addr_full": null, "addr_house": null, "addr_stree": null, "addr_city": null }, "geometry": { "type": "Point", "coordinates": [ 80.4695937, 6.0952376 ] } },
{ "type": "Feature", "properties": { "osm_id": "3604585622", "name": "JAI hospital", "amenity": "hospital", "man_made": null, "shop": null, "tourism": null, "opening_ho": null, "beds": null, "rooms": null, "addr_full": null, "addr_house": null, "addr_stree": null, "addr_city": null }, "geometry": { "type": "Point", "coordinates": [ 81.848492, 7.2179832 ] } },
{ "type": "Feature", "properties": { "osm_id": "3886223616", "name": "Ayurvedic Hospital", "amenity": "hospital", "man_made": null, "shop": null, "tourism": null, "opening_ho": null, "beds": null, "rooms": null, "addr_full": null, "addr_house": null, "addr_stree": "Bandaranayake Mawatha", "addr_city": "Rathnapura" }, "geometry": { "type": "Point", "coordinates": [ 80.395588, 6.6832219 ] } },
{ "type": "Feature", "properties": { "osm_id": "4704694322", "name": null, "amenity": "hospital", "man_made": null, "shop": null, "tourism": null, "opening_ho": null, "beds": null, "rooms": null, "addr_full": null, "addr_house": null, "addr_stree": null, "addr_city": null }, "geometry": { "type": "Point", "coordinates": [ 79.8530752, 6.9017271 ] } },
{ "type": "Feature", "properties": { "osm_id": "1814595125", "name": "Hambantota General Hospital", "amenity": "hospital", "man_made": null, "shop": null, "tourism": null, "opening_ho": null, "beds": null, "rooms": null, "addr_full": null, "addr_house": null, "addr_stree": null, "addr_city": null }, "geometry": { "type": "Point", "coordinates": [ 81.1224549, 6.1271953 ] } },
{ "type": "Feature", "properties": { "osm_id": "2034206040", "name": "National Blood Transfusion Service", "amenity": "hospital", "man_made": null, "shop": null, "tourism": null, "opening_ho": null, "beds": null, "rooms": null, "addr_full": null, "addr_house": "555\/5D", "addr_stree": "Alvitigala Mawatha", "addr_city": "Narahenpita" }, "geometry": { "type": "Point", "coordinates": [ 79.8775299, 6.8911635 ] } },
{ "type": "Feature", "properties": { "osm_id": "2151514476", "name": "Coop medical Centre", "amenity": "hospital", "man_made": null, "shop": null, "tourism": null, "opening_ho": null, "beds": null, "rooms": null, "addr_full": null, "addr_house": null, "addr_stree": "Bus Stand Road", "addr_city": "Rathnapura" }, "geometry": { "type": "Point", "coordinates": [ 80.4027324, 6.6874477 ] } },
{ "type": "Feature", "properties": { "osm_id": "693050106", "name": "Oruwala Hospital", "amenity": "hospital", "man_made": null, "shop": null, "tourism": null, "opening_ho": null, "beds": null, "rooms": null, "addr_full": null, "addr_house": null, "addr_stree": null, "addr_city": null }, "geometry": { "type": "Point", "coordinates": [ 79.99236590000001, 6.8812325 ] } },
{ "type": "Feature", "properties": { "osm_id": "4454568727", "name": "Base Hospital Mallavi", "amenity": "hospital", "man_made": null, "shop": null, "tourism": null, "opening_ho": null, "beds": null, "rooms": null, "addr_full": null, "addr_house": null, "addr_stree": null, "addr_city": null }, "geometry": { "type": "Point", "coordinates": [ 80.3087492, 9.1346083 ] } },
{ "type": "Feature", "properties": { "osm_id": "3889586527", "name": "Rukkasagara Ayuruwedic hospital", "amenity": "hospital", "man_made": null, "shop": null, "tourism": null, "opening_ho": null, "beds": null, "rooms": null, "addr_full": null, "addr_house": null, "addr_stree": null, "addr_city": null }, "geometry": { "type": "Point", "coordinates": [ 80.1354938, 7.4332264 ] } },
{ "type": "Feature", "properties": { "osm_id": "4986424414", "name": "Maraka Divisional Hospital", "amenity": "hospital", "man_made": null, "shop": null, "tourism": null, "opening_ho": null, "beds": null, "rooms": null, "addr_full": null, "addr_house": null, "addr_stree": null, "addr_city": null }, "geometry": { "type": "Point", "coordinates": [ 80.9575018, 7.5871219 ] } },
{ "type": "Feature", "properties": { "osm_id": "5377921579", "name": "Lions Club Eye Hospital", "amenity": "hospital", "man_made": null, "shop": null, "tourism": null, "opening_ho": null, "beds": null, "rooms": null, "addr_full": null, "addr_house": null, "addr_stree": null, "addr_city": null }, "geometry": { "type": "Point", "coordinates": [ 79.8761609, 6.9832212 ] } },
{ "type": "Feature", "properties": { "osm_id": "3521708167", "name": "Pimbura Distric Hospital", "amenity": "hospital", "man_made": null, "shop": null, "tourism": null, "opening_ho": null, "beds": null, "rooms": null, "addr_full": null, "addr_house": null, "addr_stree": null, "addr_city": null }, "geometry": { "type": "Point", "coordinates": [ 80.1581676, 6.5757017 ] } },
{ "type": "Feature", "properties": { "osm_id": "1818503771", "name": "Ambalantota Hospital", "amenity": "hospital", "man_made": null, "shop": null, "tourism": null, "opening_ho": null, "beds": null, "rooms": null, "addr_full": null, "addr_house": null, "addr_stree": null, "addr_city": null }, "geometry": { "type": "Point", "coordinates": [ 81.02205450000001, 6.1147035 ] } },
{ "type": "Feature", "properties": { "osm_id": "1292992413", "name": "Arogya Gampaha", "amenity": "hospital", "man_made": null, "shop": null, "tourism": null, "opening_ho": null, "beds": null, "rooms": null, "addr_full": null, "addr_house": null, "addr_stree": null, "addr_city": null }, "geometry": { "type": "Point", "coordinates": [ 80.0005285, 7.0906504 ] } },
{ "type": "Feature", "properties": { "osm_id": "4833926653", "name": "Car Park", "amenity": "hospital", "man_made": null, "shop": null, "tourism": null, "opening_ho": null, "beds": null, "rooms": null, "addr_full": null, "addr_house": null, "addr_stree": null, "addr_city": "Galle" }, "geometry": { "type": "Point", "coordinates": [ 80.21623550000001, 6.0365933 ] } },
{ "type": "Feature", "properties": { "osm_id": "4833926654", "name": "Hospital", "amenity": "hospital", "man_made": null, "shop": null, "tourism": null, "opening_ho": null, "beds": null, "rooms": null, "addr_full": null, "addr_house": null, "addr_stree": null, "addr_city": null }, "geometry": { "type": "Point", "coordinates": [ 80.2164942, 6.0367352 ] } },
{ "type": "Feature", "properties": { "osm_id": "617214076", "name": "Thalangama Hospital", "amenity": "hospital", "man_made": null, "shop": null, "tourism": null, "opening_ho": null, "beds": null, "rooms": null, "addr_full": null, "addr_house": null, "addr_stree": null, "addr_city": null }, "geometry": { "type": "Point", "coordinates": [ 79.9285198, 6.9062331 ] } },
{ "type": "Feature", "properties": { "osm_id": "4833926726", "name": "Dambagalla rural hospital", "amenity": "hospital", "man_made": null, "shop": null, "tourism": null, "opening_ho": null, "beds": null, "rooms": null, "addr_full": null, "addr_house": null, "addr_stree": null, "addr_city": null }, "geometry": { "type": "Point", "coordinates": [ 81.3750928, 6.9799565 ] } },
{ "type": "Feature", "properties": { "osm_id": "2921319349", "name": "Baddegama Hospital", "amenity": "hospital", "man_made": null, "shop": null, "tourism": null, "opening_ho": null, "beds": null, "rooms": null, "addr_full": null, "addr_house": null, "addr_stree": null, "addr_city": null }, "geometry": { "type": "Point", "coordinates": [ 80.1804779, 6.1614238 ] } },
{ "type": "Feature", "properties": { "osm_id": "617262855", "name": "Pannipitiya Nursing Home", "amenity": "hospital", "man_made": null, "shop": null, "tourism": null, "opening_ho": null, "beds": null, "rooms": null, "addr_full": null, "addr_house": null, "addr_stree": "Pannipitiya-Malambe Road", "addr_city": "Pannipitiya" }, "geometry": { "type": "Point", "coordinates": [ 79.9522616, 6.8468216 ] } },
{ "type": "Feature", "properties": { "osm_id": "2035811627", "name": "Ideal Hospital", "amenity": "hospital", "man_made": null, "shop": null, "tourism": null, "opening_ho": null, "beds": null, "rooms": null, "addr_full": null, "addr_house": null, "addr_stree": null, "addr_city": "Nuwara Eliya" }, "geometry": { "type": "Point", "coordinates": [ 80.768161400000011, 6.9723493 ] } },
{ "type": "Feature", "properties": { "osm_id": "1304839120", "name": "Rural Hospital Halgolla", "amenity": "hospital", "man_made": null, "shop": null, "tourism": null, "opening_ho": null, "beds": null, "rooms": null, "addr_full": null, "addr_house": null, "addr_stree": null, "addr_city": null }, "geometry": { "type": "Point", "coordinates": [ 80.3664892, 7.0424521 ] } },
{ "type": "Feature", "properties": { "osm_id": "1818771616", "name": "Diyatalawa Base Hospital", "amenity": "hospital", "man_made": null, "shop": null, "tourism": null, "opening_ho": null, "beds": null, "rooms": null, "addr_full": null, "addr_house": null, "addr_stree": null, "addr_city": null }, "geometry": { "type": "Point", "coordinates": [ 80.9571343, 6.8055733 ] } },
{ "type": "Feature", "properties": { "osm_id": "2035855678", "name": "Kandapola Hospital", "amenity": "hospital", "man_made": null, "shop": null, "tourism": null, "opening_ho": null, "beds": null, "rooms": null, "addr_full": null, "addr_house": null, "addr_stree": null, "addr_city": "Kandapola" }, "geometry": { "type": "Point", "coordinates": [ 80.818241, 6.9951992 ] } },
{ "type": "Feature", "properties": { "osm_id": "4355198590", "name": "Divisional Hospital Akkarayankulam", "amenity": "hospital", "man_made": null, "shop": null, "tourism": null, "opening_ho": null, "beds": null, "rooms": null, "addr_full": null, "addr_house": null, "addr_stree": null, "addr_city": "Akkarayankulam" }, "geometry": { "type": "Point", "coordinates": [ 80.3148952, 9.3117868 ] } },
{ "type": "Feature", "properties": { "osm_id": "1369179914", "name": "Park Hospital", "amenity": "hospital", "man_made": null, "shop": null, "tourism": null, "opening_ho": null, "beds": null, "rooms": null, "addr_full": null, "addr_house": null, "addr_stree": null, "addr_city": null }, "geometry": { "type": "Point", "coordinates": [ 79.8725351, 6.8872112 ] } },
{ "type": "Feature", "properties": { "osm_id": "4355292191", "name": "Base Hospital Mulankavil", "amenity": "hospital", "man_made": null, "shop": null, "tourism": null, "opening_ho": null, "beds": null, "rooms": null, "addr_full": null, "addr_house": null, "addr_stree": null, "addr_city": "Mulankavil" }, "geometry": { "type": "Point", "coordinates": [ 80.142879900000011, 9.2436926 ] } },
{ "type": "Feature", "properties": { "osm_id": "5193051737", "name": "saranath", "amenity": "hospital", "man_made": null, "shop": null, "tourism": null, "opening_ho": null, "beds": null, "rooms": null, "addr_full": null, "addr_house": null, "addr_stree": "Karadiyana Road", "addr_city": null }, "geometry": { "type": "Point", "coordinates": [ 79.9026721, 6.8158803 ] } },
{ "type": "Feature", "properties": { "osm_id": "4355324065", "name": "Divisional Hospital, Urthipuram", "amenity": "hospital", "man_made": null, "shop": null, "tourism": null, "opening_ho": null, "beds": null, "rooms": null, "addr_full": null, "addr_house": null, "addr_stree": null, "addr_city": null }, "geometry": { "type": "Point", "coordinates": [ 80.3582977, 9.3929259 ] } },
{ "type": "Feature", "properties": { "osm_id": "4455801356", "name": "Primary Medical Care Unit (PMCU) Tholpuram", "amenity": "hospital", "man_made": null, "shop": null, "tourism": null, "opening_ho": null, "beds": null, "rooms": null, "addr_full": null, "addr_house": null, "addr_stree": null, "addr_city": null }, "geometry": { "type": "Point", "coordinates": [ 79.9385407, 9.7571322 ] } },
{ "type": "Feature", "properties": { "osm_id": "3790106923", "name": "Deltota Hospital", "amenity": "hospital", "man_made": null, "shop": null, "tourism": null, "opening_ho": null, "beds": null, "rooms": null, "addr_full": null, "addr_house": null, "addr_stree": null, "addr_city": null }, "geometry": { "type": "Point", "coordinates": [ 80.6999928, 7.1703254 ] } },
{ "type": "Feature", "properties": { "osm_id": "1874159419", "name": "Panama Base Hospital", "amenity": "hospital", "man_made": null, "shop": null, "tourism": null, "opening_ho": null, "beds": null, "rooms": null, "addr_full": null, "addr_house": null, "addr_stree": "Panama-Kumbukkana Road", "addr_city": "Panama" }, "geometry": { "type": "Point", "coordinates": [ 81.804299300000011, 6.7558294 ] } },
{ "type": "Feature", "properties": { "osm_id": "2152832489", "name": "District General Hospital Killinochchi", "amenity": "hospital", "man_made": null, "shop": null, "tourism": null, "opening_ho": null, "beds": null, "rooms": null, "addr_full": null, "addr_house": null, "addr_stree": null, "addr_city": null }, "geometry": { "type": "Point", "coordinates": [ 80.4114281, 9.3727442 ] } },
{ "type": "Feature", "properties": { "osm_id": "844674876", "name": "Kiribathgoda Base Hospital", "amenity": "hospital", "man_made": null, "shop": null, "tourism": null, "opening_ho": null, "beds": null, "rooms": null, "addr_full": null, "addr_house": null, "addr_stree": null, "addr_city": null }, "geometry": { "type": "Point", "coordinates": [ 79.9292155, 6.9838357 ] } },
{ "type": "Feature", "properties": { "osm_id": "4265986683", "name": "Girandurukotte Hospital", "amenity": "hospital", "man_made": null, "shop": null, "tourism": null, "opening_ho": null, "beds": null, "rooms": null, "addr_full": null, "addr_house": null, "addr_stree": null, "addr_city": null }, "geometry": { "type": "Point", "coordinates": [ 81.019055900000012, 7.4693747 ] } },
{ "type": "Feature", "properties": { "osm_id": "1819855346", "name": "Ettampitiya Base Hospital", "amenity": "hospital", "man_made": null, "shop": null, "tourism": null, "opening_ho": null, "beds": null, "rooms": null, "addr_full": null, "addr_house": null, "addr_stree": null, "addr_city": null }, "geometry": { "type": "Point", "coordinates": [ 80.9899055, 6.9346877 ] } },
{ "type": "Feature", "properties": { "osm_id": "1874238303", "name": "Base Hospital", "amenity": "hospital", "man_made": null, "shop": null, "tourism": null, "opening_ho": null, "beds": null, "rooms": null, "addr_full": null, "addr_house": null, "addr_stree": null, "addr_city": null }, "geometry": { "type": "Point", "coordinates": [ 81.8304454, 6.8761072 ] } },
{ "type": "Feature", "properties": { "osm_id": "2964699767", "name": "Kandanegedara Hospital", "amenity": "hospital", "man_made": null, "shop": null, "tourism": null, "opening_ho": null, "beds": null, "rooms": null, "addr_full": null, "addr_house": null, "addr_stree": null, "addr_city": null }, "geometry": { "type": "Point", "coordinates": [ 79.9787224, 7.3992228 ] } },
{ "type": "Feature", "properties": { "osm_id": "4595578406", "name": null, "amenity": "hospital", "man_made": null, "shop": null, "tourism": null, "opening_ho": null, "beds": null, "rooms": null, "addr_full": null, "addr_house": null, "addr_stree": null, "addr_city": null }, "geometry": { "type": "Point", "coordinates": [ 80.6254023, 7.4621775 ] } },
{ "type": "Feature", "properties": { "osm_id": "844679663", "name": "Lanka Pharmacy", "amenity": "hospital", "man_made": null, "shop": null, "tourism": null, "opening_ho": null, "beds": null, "rooms": null, "addr_full": null, "addr_house": null, "addr_stree": null, "addr_city": null }, "geometry": { "type": "Point", "coordinates": [ 79.9300631, 6.9808166 ] } },
{ "type": "Feature", "properties": { "osm_id": "2980887901", "name": "Indika Pharmacy", "amenity": "hospital", "man_made": null, "shop": null, "tourism": null, "opening_ho": null, "beds": null, "rooms": null, "addr_full": null, "addr_house": "14", "addr_stree": "Hospital Road", "addr_city": "Embilipitiya" }, "geometry": { "type": "Point", "coordinates": [ 80.8433486, 6.3256369 ] } },
{ "type": "Feature", "properties": { "osm_id": "618557052", "name": "Western Hospital", "amenity": "hospital", "man_made": null, "shop": null, "tourism": null, "opening_ho": null, "beds": null, "rooms": null, "addr_full": null, "addr_house": null, "addr_stree": "Cotta Road", "addr_city": "colombo 08" }, "geometry": { "type": "Point", "coordinates": [ 79.8856356, 6.9117052 ] } },
{ "type": "Feature", "properties": { "osm_id": "4595801052", "name": "CMC Free Dispensary", "amenity": "hospital", "man_made": null, "shop": null, "tourism": null, "opening_ho": "08:00-17:00 Mo-Fr,Sa,Su 08:00-14:00", "beds": null, "rooms": null, "addr_full": null, "addr_house": "75", "addr_stree": "Kirula Road", "addr_city": null }, "geometry": { "type": "Point", "coordinates": [ 79.8712782, 6.8926568 ] } },
{ "type": "Feature", "properties": { "osm_id": "1370716555", "name": "Chest Hospital Welisara", "amenity": "hospital", "man_made": null, "shop": null, "tourism": null, "opening_ho": null, "beds": null, "rooms": null, "addr_full": null, "addr_house": null, "addr_stree": null, "addr_city": null }, "geometry": { "type": "Point", "coordinates": [ 79.9029398, 7.0242496 ] } },
{ "type": "Feature", "properties": { "osm_id": "3154127034", "name": "Panawala Ayurveda Hospital", "amenity": "hospital", "man_made": null, "shop": null, "tourism": null, "opening_ho": null, "beds": null, "rooms": null, "addr_full": null, "addr_house": null, "addr_stree": null, "addr_city": null }, "geometry": { "type": "Point", "coordinates": [ 80.272344600000011, 6.8881022 ] } },
{ "type": "Feature", "properties": { "osm_id": "4163524789", "name": "Divisional Hospital Ulukkulam", "amenity": "hospital", "man_made": null, "shop": null, "tourism": null, "opening_ho": null, "beds": null, "rooms": null, "addr_full": null, "addr_house": null, "addr_stree": null, "addr_city": null }, "geometry": { "type": "Point", "coordinates": [ 80.4054166, 8.663449 ] } },
{ "type": "Feature", "properties": { "osm_id": "618657478", "name": "Dambulla General Provincial Hospital", "amenity": "hospital", "man_made": null, "shop": null, "tourism": null, "opening_ho": null, "beds": null, "rooms": null, "addr_full": null, "addr_house": null, "addr_stree": null, "addr_city": null }, "geometry": { "type": "Point", "coordinates": [ 80.650505, 7.8728249 ] } },
{ "type": "Feature", "properties": { "osm_id": "618723485", "name": "Medawachchiya Hospital", "amenity": "hospital", "man_made": null, "shop": null, "tourism": null, "opening_ho": null, "beds": null, "rooms": null, "addr_full": null, "addr_house": null, "addr_stree": null, "addr_city": null }, "geometry": { "type": "Point", "coordinates": [ 80.4897214, 8.5410891 ] } },
{ "type": "Feature", "properties": { "osm_id": "4936849273", "name": "Maadipola Hospital", "amenity": "hospital", "man_made": null, "shop": null, "tourism": null, "opening_ho": null, "beds": null, "rooms": null, "addr_full": null, "addr_house": null, "addr_stree": null, "addr_city": null }, "geometry": { "type": "Point", "coordinates": [ 80.5770925, 7.685545 ] } },
{ "type": "Feature", "properties": { "osm_id": "4993702022", "name": null, "amenity": "hospital", "man_made": null, "shop": null, "tourism": null, "opening_ho": null, "beds": null, "rooms": null, "addr_full": null, "addr_house": null, "addr_stree": null, "addr_city": null }, "geometry": { "type": "Point", "coordinates": [ 80.6980836, 6.2677965 ] } },
{ "type": "Feature", "properties": { "osm_id": "6657192092", "name": null, "amenity": "hospital", "man_made": null, "shop": null, "tourism": null, "opening_ho": null, "beds": null, "rooms": null, "addr_full": null, "addr_house": null, "addr_stree": "Naduteevu", "addr_city": null }, "geometry": { "type": "Point", "coordinates": [ 81.2629358, 8.4544067 ] } },
{ "type": "Feature", "properties": { "osm_id": "1662139981", "name": "Asia Hospital", "amenity": "hospital", "man_made": null, "shop": null, "tourism": null, "opening_ho": null, "beds": null, "rooms": null, "addr_full": null, "addr_house": null, "addr_stree": "High Level Road", "addr_city": "Maharagama" }, "geometry": { "type": "Point", "coordinates": [ 79.92922, 6.8453097 ] } },
{ "type": "Feature", "properties": { "osm_id": "4067952711", "name": "Nawinna Channeling Centre", "amenity": "hospital", "man_made": null, "shop": null, "tourism": null, "opening_ho": null, "beds": null, "rooms": null, "addr_full": null, "addr_house": null, "addr_stree": "Ambepussa-Kurunegala Road", "addr_city": "Kurunegala" }, "geometry": { "type": "Point", "coordinates": [ 80.3602529, 7.4813548 ] } },
{ "type": "Feature", "properties": { "osm_id": "1370719663", "name": "Browns Hospital", "amenity": "hospital", "man_made": null, "shop": null, "tourism": null, "opening_ho": null, "beds": null, "rooms": null, "addr_full": null, "addr_house": null, "addr_stree": null, "addr_city": null }, "geometry": { "type": "Point", "coordinates": [ 79.9206152, 7.0277745 ] } },
{ "type": "Feature", "properties": { "osm_id": "4993702925", "name": null, "amenity": "hospital", "man_made": null, "shop": null, "tourism": null, "opening_ho": null, "beds": null, "rooms": null, "addr_full": null, "addr_house": null, "addr_stree": null, "addr_city": null }, "geometry": { "type": "Point", "coordinates": [ 80.763909, 6.2589936 ] } },
{ "type": "Feature", "properties": { "osm_id": "4993702926", "name": null, "amenity": "hospital", "man_made": null, "shop": null, "tourism": null, "opening_ho": null, "beds": null, "rooms": null, "addr_full": null, "addr_house": null, "addr_stree": null, "addr_city": null }, "geometry": { "type": "Point", "coordinates": [ 80.8095193, 6.2446809 ] } },
{ "type": "Feature", "properties": { "osm_id": "6657814469", "name": "Body Doc Medical Center", "amenity": "hospital", "man_made": null, "shop": null, "tourism": null, "opening_ho": null, "beds": null, "rooms": null, "addr_full": null, "addr_house": null, "addr_stree": null, "addr_city": null }, "geometry": { "type": "Point", "coordinates": [ 79.9601667, 6.8955508 ] } },
{ "type": "Feature", "properties": { "osm_id": "1370719682", "name": "Kandana Base Hospital", "amenity": "hospital", "man_made": null, "shop": null, "tourism": null, "opening_ho": null, "beds": null, "rooms": null, "addr_full": null, "addr_house": null, "addr_stree": null, "addr_city": null }, "geometry": { "type": "Point", "coordinates": [ 79.90373910000001, 7.0412386 ] } },
{ "type": "Feature", "properties": { "osm_id": "5124245208", "name": "Boralanda Base Hospital", "amenity": "hospital", "man_made": null, "shop": null, "tourism": null, "opening_ho": null, "beds": null, "rooms": null, "addr_full": null, "addr_house": null, "addr_stree": null, "addr_city": null }, "geometry": { "type": "Point", "coordinates": [ 80.895521100000011, 6.8295684 ] } },
{ "type": "Feature", "properties": { "osm_id": "3699456580", "name": "Angunukolapeless", "amenity": "hospital", "man_made": null, "shop": null, "tourism": null, "opening_ho": null, "beds": null, "rooms": null, "addr_full": null, "addr_house": null, "addr_stree": null, "addr_city": null }, "geometry": { "type": "Point", "coordinates": [ 80.8997815, 6.1652567 ] } },
{ "type": "Feature", "properties": { "osm_id": "5124245209", "name": "Bogahakumbura Base Hospital", "amenity": "hospital", "man_made": null, "shop": null, "tourism": null, "opening_ho": null, "beds": null, "rooms": null, "addr_full": null, "addr_house": null, "addr_stree": null, "addr_city": null }, "geometry": { "type": "Point", "coordinates": [ 80.875676, 6.8623086 ] } },
{ "type": "Feature", "properties": { "osm_id": "1370722303", "name": "Ranwwiru Sewana Hospital", "amenity": "hospital", "man_made": null, "shop": null, "tourism": null, "opening_ho": null, "beds": null, "rooms": null, "addr_full": null, "addr_house": null, "addr_stree": null, "addr_city": null }, "geometry": { "type": "Point", "coordinates": [ 79.9227398, 7.023994 ] } },
{ "type": "Feature", "properties": { "osm_id": "5968101091", "name": null, "amenity": "hospital", "man_made": null, "shop": null, "tourism": null, "opening_ho": null, "beds": null, "rooms": null, "addr_full": null, "addr_house": null, "addr_stree": null, "addr_city": null }, "geometry": { "type": "Point", "coordinates": [ 80.1471018, 6.3951384 ] } },
{ "type": "Feature", "properties": { "osm_id": "3907647596", "name": "NTS Badulla", "amenity": "hospital", "man_made": null, "shop": null, "tourism": null, "opening_ho": null, "beds": null, "rooms": null, "addr_full": null, "addr_house": null, "addr_stree": null, "addr_city": null }, "geometry": { "type": "Point", "coordinates": [ 81.052442, 6.9904156 ] } },
{ "type": "Feature", "properties": { "osm_id": "5968440712", "name": "Hospital", "amenity": "hospital", "man_made": null, "shop": null, "tourism": null, "opening_ho": null, "beds": null, "rooms": null, "addr_full": null, "addr_house": null, "addr_stree": null, "addr_city": null }, "geometry": { "type": "Point", "coordinates": [ 80.3885883, 6.3327708 ] } },
{ "type": "Feature", "properties": { "osm_id": "1877385268", "name": "Inginiyagala Divisional Hospital", "amenity": "hospital", "man_made": null, "shop": null, "tourism": null, "opening_ho": null, "beds": null, "rooms": null, "addr_full": null, "addr_house": null, "addr_stree": null, "addr_city": null }, "geometry": { "type": "Point", "coordinates": [ 81.5421294, 7.2262613 ] } },
{ "type": "Feature", "properties": { "osm_id": "2155827557", "name": "Rural Hospital", "amenity": "hospital", "man_made": null, "shop": null, "tourism": null, "opening_ho": null, "beds": null, "rooms": null, "addr_full": null, "addr_house": null, "addr_stree": null, "addr_city": null }, "geometry": { "type": "Point", "coordinates": [ 80.3743171, 6.3796996 ] } },
{ "type": "Feature", "properties": { "osm_id": "6346744992", "name": "Asiri Hospitals", "amenity": "hospital", "man_made": null, "shop": null, "tourism": null, "opening_ho": null, "beds": null, "rooms": null, "addr_full": null, "addr_house": null, "addr_stree": null, "addr_city": null }, "geometry": { "type": "Point", "coordinates": [ 80.6113424, 7.2742033 ] } },
{ "type": "Feature", "properties": { "osm_id": "4067961199", "name": "Navinna Hospital", "amenity": "hospital", "man_made": null, "shop": null, "tourism": null, "opening_ho": null, "beds": null, "rooms": null, "addr_full": null, "addr_house": null, "addr_stree": "U B Wanninayake Mawatha", "addr_city": "Kurunegala" }, "geometry": { "type": "Point", "coordinates": [ 80.3626036, 7.4801312 ] } },
{ "type": "Feature", "properties": { "osm_id": "5634795266", "name": "High Forest Government Hospital", "amenity": "hospital", "man_made": null, "shop": null, "tourism": null, "opening_ho": null, "beds": null, "rooms": null, "addr_full": null, "addr_house": null, "addr_stree": null, "addr_city": null }, "geometry": { "type": "Point", "coordinates": [ 80.8400832, 7.0667093 ] } },
{ "type": "Feature", "properties": { "osm_id": "4271220164", "name": "hiripitiya", "amenity": "hospital", "man_made": null, "shop": null, "tourism": null, "opening_ho": null, "beds": null, "rooms": null, "addr_full": null, "addr_house": null, "addr_stree": null, "addr_city": null }, "geometry": { "type": "Point", "coordinates": [ 80.3790486, 7.6532267 ] } },
{ "type": "Feature", "properties": { "osm_id": "5973240867", "name": "Dambadeniya hospital", "amenity": "hospital", "man_made": null, "shop": null, "tourism": null, "opening_ho": null, "beds": null, "rooms": null, "addr_full": null, "addr_house": null, "addr_stree": null, "addr_city": null }, "geometry": { "type": "Point", "coordinates": [ 80.1376735, 7.3487704 ] } },
{ "type": "Feature", "properties": { "osm_id": "2708944796", "name": "Sachitra Hospital", "amenity": "hospital", "man_made": null, "shop": null, "tourism": null, "opening_ho": null, "beds": null, "rooms": null, "addr_full": null, "addr_house": "76", "addr_stree": "Panadura-Rathnapura", "addr_city": "Panadura" }, "geometry": { "type": "Point", "coordinates": [ 79.9106933, 6.7111418 ] } },
{ "type": "Feature", "properties": { "osm_id": "3166503673", "name": "Golden Key ENT Hospital", "amenity": "hospital", "man_made": null, "shop": null, "tourism": null, "opening_ho": null, "beds": null, "rooms": null, "addr_full": null, "addr_house": null, "addr_stree": null, "addr_city": null }, "geometry": { "type": "Point", "coordinates": [ 79.8894987, 6.9104515 ] } },
{ "type": "Feature", "properties": { "osm_id": "4939070630", "name": "Kurunduwaththa Divisional Hospital", "amenity": "hospital", "man_made": null, "shop": null, "tourism": null, "opening_ho": null, "beds": null, "rooms": null, "addr_full": null, "addr_house": null, "addr_stree": null, "addr_city": null }, "geometry": { "type": "Point", "coordinates": [ 80.5313918, 7.1287805 ] } },
{ "type": "Feature", "properties": { "osm_id": "873842128", "name": "Nuwara Eliya General Hospital", "amenity": "hospital", "man_made": null, "shop": null, "tourism": null, "opening_ho": null, "beds": null, "rooms": null, "addr_full": null, "addr_house": null, "addr_stree": null, "addr_city": "Nuwara Eliya" }, "geometry": { "type": "Point", "coordinates": [ 80.7803117, 6.9741095 ] } },
{ "type": "Feature", "properties": { "osm_id": "4068054466", "name": "Kotaligoda Hospital", "amenity": "hospital", "man_made": null, "shop": null, "tourism": null, "opening_ho": null, "beds": null, "rooms": null, "addr_full": null, "addr_house": null, "addr_stree": null, "addr_city": null }, "geometry": { "type": "Point", "coordinates": [ 80.5133213, 7.2895042 ] } },
{ "type": "Feature", "properties": { "osm_id": "3031566819", "name": "Radawana Divisional Hospital", "amenity": "hospital", "man_made": null, "shop": null, "tourism": null, "opening_ho": null, "beds": null, "rooms": null, "addr_full": null, "addr_house": null, "addr_stree": "Weliweriya-Kirindiwela Road", "addr_city": null }, "geometry": { "type": "Point", "coordinates": [ 80.100181, 7.0324364 ] } },
{ "type": "Feature", "properties": { "osm_id": "4942909670", "name": null, "amenity": "hospital", "man_made": null, "shop": null, "tourism": null, "opening_ho": null, "beds": null, "rooms": null, "addr_full": null, "addr_house": null, "addr_stree": null, "addr_city": null }, "geometry": { "type": "Point", "coordinates": [ 80.018219, 9.6587395 ] } },
{ "type": "Feature", "properties": { "osm_id": "1822725595", "name": "Phillip Hospital", "amenity": "hospital", "man_made": null, "shop": null, "tourism": null, "opening_ho": null, "beds": null, "rooms": null, "addr_full": null, "addr_house": null, "addr_stree": null, "addr_city": null }, "geometry": { "type": "Point", "coordinates": [ 79.9627482, 6.5793403 ] } },
{ "type": "Feature", "properties": { "osm_id": "3798153917", "name": "Kahawatte Rural Hospital", "amenity": "hospital", "man_made": null, "shop": null, "tourism": null, "opening_ho": null, "beds": null, "rooms": null, "addr_full": null, "addr_house": null, "addr_stree": null, "addr_city": null }, "geometry": { "type": "Point", "coordinates": [ 80.604723400000012, 7.1612264 ] } },
{ "type": "Feature", "properties": { "osm_id": "4361510689", "name": null, "amenity": "hospital", "man_made": null, "shop": null, "tourism": null, "opening_ho": null, "beds": null, "rooms": null, "addr_full": null, "addr_house": null, "addr_stree": null, "addr_city": null }, "geometry": { "type": "Point", "coordinates": [ 80.2475954, 6.0202465 ] } },
{ "type": "Feature", "properties": { "osm_id": "6183173991", "name": "Hatharaliyadda Divisional Hospital", "amenity": "hospital", "man_made": null, "shop": null, "tourism": null, "opening_ho": null, "beds": null, "rooms": null, "addr_full": null, "addr_house": null, "addr_stree": "Galagedara-Rambukkana Road", "addr_city": "Hataraliyadda" }, "geometry": { "type": "Point", "coordinates": [ 80.4772566, 7.3427233 ] } },
{ "type": "Feature", "properties": { "osm_id": "4071059960", "name": null, "amenity": "hospital", "man_made": null, "shop": null, "tourism": null, "opening_ho": null, "beds": null, "rooms": null, "addr_full": null, "addr_house": null, "addr_stree": null, "addr_city": null }, "geometry": { "type": "Point", "coordinates": [ 81.7256308, 7.6894752 ] } },
{ "type": "Feature", "properties": { "osm_id": "5733787432", "name": "Divisional Hospital A - Dankotuwa", "amenity": "hospital", "man_made": null, "shop": null, "tourism": null, "opening_ho": null, "beds": null, "rooms": null, "addr_full": null, "addr_house": null, "addr_stree": null, "addr_city": null }, "geometry": { "type": "Point", "coordinates": [ 79.887881, 7.297337 ] } },
{ "type": "Feature", "properties": { "osm_id": "3801578860", "name": "Divisional Hospital - Sithaparapuram", "amenity": "hospital", "man_made": null, "shop": null, "tourism": null, "opening_ho": null, "beds": null, "rooms": null, "addr_full": null, "addr_house": null, "addr_stree": null, "addr_city": null }, "geometry": { "type": "Point", "coordinates": [ 80.526641500000011, 8.6794289 ] } },
{ "type": "Feature", "properties": { "osm_id": "619735564", "name": "Colombo General Hospital", "amenity": "hospital", "man_made": null, "shop": null, "tourism": null, "opening_ho": null, "beds": null, "rooms": null, "addr_full": null, "addr_house": null, "addr_stree": null, "addr_city": null }, "geometry": { "type": "Point", "coordinates": [ 79.8671954, 6.9172436 ] } },
{ "type": "Feature", "properties": { "osm_id": "6183183898", "name": "District Hospital Galagedara", "amenity": "hospital", "man_made": null, "shop": null, "tourism": null, "opening_ho": null, "beds": null, "rooms": null, "addr_full": null, "addr_house": null, "addr_stree": "Galagedara-Rambukkana Road", "addr_city": "Galagedara" }, "geometry": { "type": "Point", "coordinates": [ 80.5243428, 7.3721084 ] } },
{ "type": "Feature", "properties": { "osm_id": "3918017664", "name": "ayurvedic hospital", "amenity": "hospital", "man_made": null, "shop": null, "tourism": null, "opening_ho": null, "beds": null, "rooms": null, "addr_full": null, "addr_house": null, "addr_stree": null, "addr_city": null }, "geometry": { "type": "Point", "coordinates": [ 80.009878, 7.0219408 ] } },
{ "type": "Feature", "properties": { "osm_id": "4524348589", "name": null, "amenity": "hospital", "man_made": null, "shop": null, "tourism": null, "opening_ho": null, "beds": null, "rooms": null, "addr_full": null, "addr_house": null, "addr_stree": null, "addr_city": null }, "geometry": { "type": "Point", "coordinates": [ 79.9445982, 9.7215804 ] } },
{ "type": "Feature", "properties": { "osm_id": "2176700458", "name": "Deniyaya Hospital", "amenity": "hospital", "man_made": null, "shop": null, "tourism": null, "opening_ho": null, "beds": null, "rooms": null, "addr_full": null, "addr_house": null, "addr_stree": null, "addr_city": null }, "geometry": { "type": "Point", "coordinates": [ 80.5682703, 6.3575453 ] } },
{ "type": "Feature", "properties": { "osm_id": "619944442", "name": "Nawinna Medicare Hospital", "amenity": "hospital", "man_made": null, "shop": null, "tourism": null, "opening_ho": null, "beds": null, "rooms": null, "addr_full": null, "addr_house": null, "addr_stree": null, "addr_city": "Nawinna" }, "geometry": { "type": "Point", "coordinates": [ 79.9143409, 6.8546505 ] } },
{ "type": "Feature", "properties": { "osm_id": "2176940719", "name": "Pallegama Rural Hospital", "amenity": "hospital", "man_made": null, "shop": null, "tourism": null, "opening_ho": null, "beds": null, "rooms": null, "addr_full": null, "addr_house": null, "addr_stree": null, "addr_city": null }, "geometry": { "type": "Point", "coordinates": [ 80.5223857, 6.3298078 ] } },
{ "type": "Feature", "properties": { "osm_id": "3753926197", "name": "Dolosbage Divisional Hospital", "amenity": "hospital", "man_made": null, "shop": null, "tourism": null, "opening_ho": null, "beds": null, "rooms": null, "addr_full": null, "addr_house": null, "addr_stree": "Gampola-Dolosbage Road", "addr_city": "Dolosbage" }, "geometry": { "type": "Point", "coordinates": [ 80.4712432, 7.0819686 ] } },
{ "type": "Feature", "properties": { "osm_id": "1823709276", "name": "Kalutara General Hospital", "amenity": "hospital", "man_made": null, "shop": null, "tourism": null, "opening_ho": null, "beds": null, "rooms": null, "addr_full": null, "addr_house": null, "addr_stree": null, "addr_city": null }, "geometry": { "type": "Point", "coordinates": [ 79.985238, 6.5630687 ] } },
{ "type": "Feature", "properties": { "osm_id": "4362941945", "name": "Divisional Hospital - Maruthankerny", "amenity": "hospital", "man_made": null, "shop": null, "tourism": null, "opening_ho": null, "beds": null, "rooms": null, "addr_full": null, "addr_house": null, "addr_stree": null, "addr_city": null }, "geometry": { "type": "Point", "coordinates": [ 80.3968237, 9.6220356 ] } },